address,city,state,postcode,latitude,longitude,bedroom_number,bathroom_number,square_meter,population,price,household_number,household_mean_income,families_number,family_mean_income,non_family_number,non_family_mean_income
Vista Drive,Juneau,AK,99801,58.2858,-134.41408,3,2,123,32099,450000,11850,105707,7006,124819,4844,72531
David Street,Juneau,AK,99801,58.286762,-134.41832,1,1,70,32099,220000,11850,105707,7006,124819,4844,72531
Riverside Drive,Juneau,AK,99801,58.397495,-134.5834,2,2,113,32099,329900,11850,105707,7006,124819,4844,72531
John Street,Juneau,AK,99801,58.288048,-134.42033,2,2,108,32099,229000,11850,105707,7006,124819,4844,72531
Glacier Highway,Juneau,AK,99801,58.384464,-134.65596,2,2,72,32099,279900,11850,105707,7006,124819,4844,72531
Mendenhall Loop Road and Cinema Drive,Juneau,AK,99801,58.38088,-134.57686,2,2,94,32099,205000,11850,105707,7006,124819,4844,72531
Cinema Drive,Juneau,AK,99801,58.38113,-134.58157,2,2,111,32099,320000,11850,105707,7006,124819,4844,72531
Sunset Drive,Juneau,AK,99801,58.369877,-134.5924,3,3,140,32099,460000,11850,105707,7006,124819,4844,72531
3rd Street,Juneau,AK,99801,58.29315,-134.42781,2,2,79,32099,220000,11850,105707,7006,124819,4844,72531
Glacier Avenue,Juneau,AK,99801,58.30366,-134.42325,1,1,67,32099,189500,11850,105707,7006,124819,4844,72531
Glacier Avenue,Juneau,AK,99801,58.30366,-134.42325,1,1,67,32099,174500,11850,105707,7006,124819,4844,72531
Vista Drive,Juneau,AK,99801,58.285557,-134.41348,3,2,123,32099,379900,11850,105707,7006,124819,4844,72531
Back Loop Road,Juneau,AK,99801,58.38773,-134.64381,3,3,234,32099,589900,11850,105707,7006,124819,4844,72531
Denali Avenue,Ketchikan,AK,99901,55.358498,-131.6823,3,1,98,8230,165000,5299,95227,3501,109083,1798,59888
Austin Street,Ketchikan,AK,99901,55.34969,-131.67145,2,1,63,8230,85000,5299,95227,3501,109083,1798,59888
Tongass Avenue,Ketchikan,AK,99901,55.350777,-131.68048,2,2,97,8230,309000,5299,95227,3501,109083,1798,59888
Hemlock Street,Ketchikan,AK,99901,55.349667,-131.67413,1,1,60,8230,70000,5299,95227,3501,109083,1798,59888
B Street,Fairbanks,AK,99701,64.841385,-147.68657,1,2,125,64160,329000,6903,81161,3952,92521,2951,63219
28th Avenue,Fairbanks,AK,99701,64.8214,-147.73372,2,2,79,64160,149900,6903,81161,3952,92521,2951,63219
Marika Road,Fairbanks,AK,99709,64.854095,-147.75545,2,2,118,64160,129900,11969,100803,7182,117994,4787,69731
Harvest Way,Sitka,AK,99835,57.04989,-135.3064,3,2,119,8569,239000,3572,93666,2214,112078,1358,57398
Dartmouth Drive,Fairbanks,AK,99709,64.84543,-147.86389,3,2,116,64160,225000,11969,100803,7182,117994,4787,69731
East Danna Avenue,Wasilla,AK,99654,61.586685,-149.44766,2,1,91,10469,140000,19203,97021,13894,109940,5309,57357
East Susitna Avenue,Wasilla,AK,99654,61.579014,-149.42755,3,2,141,10469,205000,19203,97021,13894,109940,5309,57357
East Susitna Avenue,Wasilla,AK,99654,61.579014,-149.42755,3,2,141,10469,235000,19203,97021,13894,109940,5309,57357
East Neil Circle,Wasilla,AK,99654,61.571148,-149.40866,2,1,84,10469,160000,19203,97021,13894,109940,5309,57357
Kenai Street,Valdez,AK,99686,60.77254,-148.6855,3,1,86,3865,64500,1523,94048,968,103060,555,73321
Vista Ridge Loop,Eagle River,AK,99577,61.331596,-149.56317,3,2,126,1536,310000,9649,126943,7117,142248,2532,76609
South Ragosa Circle,Palmer,AK,99645,61.588257,-149.10396,1,1,104,7359,225000,8726,99861,6357,111458,2369,58415
Vista Ridge Loop,Eagle River,AK,99577,61.33092,-149.56358,3,3,158,1536,345000,9649,126943,7117,142248,2532,76609
East Danna Avenue,Wasilla,AK,99654,61.586685,-149.44766,2,1,91,10469,128000,19203,97021,13894,109940,5309,57357
Trailhead Avenue,Eagle River,AK,99577,61.30037,-149.49196,4,4,215,1536,415000,9649,126943,7117,142248,2532,76609
Falklands Drive,Eagle River,AK,99577,61.32674,-149.57861,3,3,141,1536,274900,9649,126943,7117,142248,2532,76609
Wendy Lane,Soldotna,AK,99669,60.463234,-151.19035,2,1,84,4705,216900,6345,106461,4363,124460,1982,62200
West Kathy Circle,Wasilla,AK,99654,61.614475,-149.5043,3,2,123,10469,195000,19203,97021,13894,109940,5309,57357
Eagle Place Loop,Eagle River,AK,99577,61.30092,-149.50879,3,2,135,1536,340000,9649,126943,7117,142248,2532,76609
Old Glenn Highway,Eagle River,AK,99577,61.331844,-149.5637,3,2,126,1536,271500,9649,126943,7117,142248,2532,76609
Falklands Drive,Eagle River,AK,99577,61.326828,-149.57849,2,3,141,1536,300000,9649,126943,7117,142248,2532,76609
Eagle Place Loop,Eagle River,AK,99577,61.300945,-149.50879,3,2,137,1536,355000,9649,126943,7117,142248,2532,76609
Hannah Jane Place,Eagle River,AK,99577,61.320084,-149.56805,4,3,145,1536,315000,9649,126943,7117,142248,2532,76609
Fire Eagle Way,Eagle River,AK,99577,61.34539,-149.55745,3,2,142,1536,249000,9649,126943,7117,142248,2532,76609
Trailhead Avenue,Eagle River,AK,99577,61.30028,-149.4945,4,4,215,1536,365000,9649,126943,7117,142248,2532,76609
Eagle Place Loop,Eagle River,AK,99577,61.300945,-149.50879,3,2,135,1536,287000,9649,126943,7117,142248,2532,76609
River's Edge Lane,Eagle River,AK,99577,61.311108,-149.57239,2,3,134,1536,249900,9649,126943,7117,142248,2532,76609
Horseshoe Drive,Eagle River,AK,99577,61.33011,-149.5625,2,2,104,1536,239900,9649,126943,7117,142248,2532,76609
Driftwood Bay Drive,Eagle River,AK,99577,61.30016,-149.498,3,4,215,1536,385000,9649,126943,7117,142248,2532,76609
Hunterwood Lane,Eagle River,AK,99577,61.344578,-149.55617,3,2,141,1536,252000,9649,126943,7117,142248,2532,76609
West Bering Street,Soldotna,AK,99669,60.48638,-151.08566,2,2,144,4705,364900,6345,106461,4363,124460,1982,62200
Business Boulevard,Eagle River,AK,99577,61.327,-149.57596,1,1,51,1536,149000,9649,126943,7117,142248,2532,76609
Fire Creek Trail Drive,Eagle River,AK,99577,61.345673,-149.55534,3,2,126,1536,239000,9649,126943,7117,142248,2532,76609
Hummer Bay Drive,Eagle River,AK,99577,61.326187,-149.58006,3,2,144,1536,263000,9649,126943,7117,142248,2532,76609
Horseshoe Drive,Eagle River,AK,99577,61.32997,-149.56375,2,2,111,1536,225000,9649,126943,7117,142248,2532,76609
East Melissa Rose Circle,Palmer,AK,99645,61.58838,-149.10814,2,2,137,7359,279900,8726,99861,6357,111458,2369,58415
Fire Eagle Way,Eagle River,AK,99577,61.34539,-149.55745,3,2,141,1536,245000,9649,126943,7117,142248,2532,76609
Wood River Way,Eagle River,AK,99577,61.32285,-149.57558,2,2,101,1536,249900,9649,126943,7117,142248,2532,76609
Vista Ridge Loop,Eagle River,AK,99577,61.331596,-149.56317,3,3,146,1536,339000,9649,126943,7117,142248,2532,76609
Business Boulevard,Eagle River,AK,99577,61.327,-149.57596,1,1,51,1536,157000,9649,126943,7117,142248,2532,76609
Eagles Nest Court,Eagle River,AK,99577,61.304432,-149.50742,4,3,217,1536,499000,9649,126943,7117,142248,2532,76609
River Heights Loop,Eagle River,AK,99577,61.312065,-149.57191,2,3,134,1536,250000,9649,126943,7117,142248,2532,76609
Eagles Nest Court,Eagle River,AK,99577,61.30422,-149.5055,3,3,167,1536,445000,9649,126943,7117,142248,2532,76609
Conquistador Drive,Eagle River,AK,99577,61.323196,-149.5672,3,3,156,1536,370900,9649,126943,7117,142248,2532,76609
Conquistador Drive,Eagle River,AK,99577,61.323257,-149.5672,3,3,152,1536,367900,9649,126943,7117,142248,2532,76609
River's Edge Lane,Eagle River,AK,99577,61.311108,-149.57224,2,3,134,1536,239000,9649,126943,7117,142248,2532,76609
Sherman Street,Chugiak,AK,99567,61.396828,-149.45576,3,2,148,8872,383000,3062,125905,2667,131223,395,89777
Foxridge Way,Anchorage,AK,99518,61.15306,-149.88464,2,2,70,248902,225000,4172,94295,2369,106317,1803,73882
Canton Loop,Anchorage,AK,99515,61.133976,-149.91586,3,2,110,248902,230000,7624,124110,5397,131463,2227,91008
Highlander Circle,Anchorage,AK,99518,61.149364,-149.89096,3,3,192,248902,365000,4172,94295,2369,106317,1803,73882
Stonegate Circle,Anchorage,AK,99515,61.13296,-149.9164,2,1,108,248902,235000,7624,124110,5397,131463,2227,91008
Molanary Drive,Anchorage,AK,99502,61.142616,-149.94997,2,1,78,248902,125000,8994,118867,6350,134240,2644,77261
West International Airport Road,Anchorage,AK,99502,61.174423,-149.93524,2,2,95,248902,178000,8994,118867,6350,134240,2644,77261
Commons Place,Anchorage,AK,99502,61.13638,-149.942,3,2,124,248902,265000,8994,118867,6350,134240,2644,77261
Huntsmen Circle,Anchorage,AK,99518,61.154243,-149.88481,2,2,69,248902,180000,4172,94295,2369,106317,1803,73882
Sand Lake,Anchorage,AK,99502,61.13734,-149.9458,2,1,78,248902,159000,8994,118867,6350,134240,2644,77261
Roald Amundsen Avenue,Anchorage,AK,99517,61.18503,-149.95459,3,3,158,248902,424900,6892,111971,3866,131065,3026,82685
Foxridge Circle,Anchorage,AK,99518,61.155445,-149.88478,2,2,69,248902,170000,4172,94295,2369,106317,1803,73882
West International Airport Road,Anchorage,AK,99502,61.174423,-149.93524,2,2,95,248902,190000,8994,118867,6350,134240,2644,77261
Canton Loop,Anchorage,AK,99515,61.133633,-149.91519,3,2,111,248902,255000,7624,124110,5397,131463,2227,91008
Discovery View Drive,Anchorage,AK,99515,61.11734,-149.9321,2,2,96,248902,290000,7624,124110,5397,131463,2227,91008
Lakeshore Drive,Anchorage,AK,99517,61.18097,-149.95001,2,2,80,248902,205000,6892,111971,3866,131065,3026,82685
McRae Road,Anchorage,AK,99517,61.185745,-149.92569,2,1,90,248902,99000,6892,111971,3866,131065,3026,82685
Canton Loop,Anchorage,AK,99515,61.134064,-149.91682,3,2,108,248902,250000,7624,124110,5397,131463,2227,91008
Discovery View Drive,Anchorage,AK,99515,61.11576,-149.93002,3,3,198,248902,410000,7624,124110,5397,131463,2227,91008
Discovery Park Drive,Anchorage,AK,99515,61.11718,-149.93318,3,3,177,248902,415000,7624,124110,5397,131463,2227,91008
Moorland Street,Anchorage,AK,99502,61.143818,-149.9552,2,2,135,248902,325000,8994,118867,6350,134240,2644,77261
Jewel Lake Road,Anchorage,AK,99502,61.143543,-149.9516,2,2,99,248902,155000,8994,118867,6350,134240,2644,77261
Foxridge Way,Jeffersontown,AK,99518,61.153572,-149.88489,2,2,69,27933,170000,4172,94295,2369,106317,1803,73882
Harbor Landing Circle,Anchorage,AK,99515,61.126965,-149.9233,3,3,199,248902,410000,7624,124110,5397,131463,2227,91008
West 76th Avenue,Anchorage,AK,99518,61.151814,-149.88902,2,1,84,248902,165000,4172,94295,2369,106317,1803,73882
Sand Lake,Anchorage,AK,99502,61.13734,-149.9458,2,1,78,248902,168000,8994,118867,6350,134240,2644,77261
Arctic Boulevard,Anchorage,AK,99518,61.17245,-149.89838,3,2,179,248902,294900,4172,94295,2369,106317,1803,73882
Weimer Road,Anchorage,AK,99502,61.155804,-149.94989,2,1,94,248902,110000,8994,118867,6350,134240,2644,77261
North Star Street,Anchorage,AK,99503,61.20083,-149.9007,2,2,125,248902,259900,6167,73025,2999,85128,3168,58358
Potlatch Circle,Anchorage,AK,99503,61.2017,-149.90161,3,2,169,248902,369900,6167,73025,2999,85128,3168,58358
Eastridge Drive,Anchorage,AK,99501,61.20458,-149.84189,2,1,84,248902,122500,7256,87836,2940,117534,4316,65106
West 23rd Avenue,Anchorage,AK,99503,61.19971,-149.89903,2,1,78,248902,125000,6167,73025,2999,85128,3168,58358
Nelchina Street,Anchorage,AK,99501,61.20643,-149.85587,2,2,114,248902,189000,7256,87836,2940,117534,4316,65106
Denali Street,Anchorage,AK,99501,61.21099,-149.87767,2,2,84,248902,160000,7256,87836,2940,117534,4316,65106
East 7th Avenue,Anchorage,AK,99501,61.21532,-149.87993,2,3,132,248902,509900,7256,87836,2940,117534,4316,65106
East 7th Avenue,Anchorage,AK,99501,61.215862,-149.88034,1,1,67,248902,128000,7256,87836,2940,117534,4316,65106
East 12th Avenue,Anchorage,AK,99501,61.21067,-149.87686,1,1,62,248902,165000,7256,87836,2940,117534,4316,65106
Sitka Street,Anchorage,AK,99501,61.205162,-149.84402,2,1,81,248902,140000,7256,87836,2940,117534,4316,65106
Montclaire Court,Anchorage,AK,99503,61.190655,-149.8947,3,2,126,248902,219900,6167,73025,2999,85128,3168,58358
Juneau Street,Anchorage,AK,99501,61.212906,-149.86458,3,2,118,248902,150000,7256,87836,2940,117534,4316,65106
G Street,Anchorage,AK,99501,61.20658,-149.89494,3,2,145,248902,519000,7256,87836,2940,117534,4316,65106
East 14th Avenue,Anchorage,AK,99501,61.208973,-149.87817,2,2,91,248902,169900,7256,87836,2940,117534,4316,65106
Nelchina Street,Anchorage,AK,99501,61.206623,-149.85645,3,3,157,248902,260000,7256,87836,2940,117534,4316,65106
East 11th Avenue,Anchorage,AK,99501,61.21133,-149.87868,1,1,65,248902,110000,7256,87836,2940,117534,4316,65106
Denali Street,Anchorage,AK,99501,61.21099,-149.87767,1,1,78,248902,172000,7256,87836,2940,117534,4316,65106
East 11th Avenue,Anchorage,AK,99501,61.211372,-149.87787,2,2,86,248902,167000,7256,87836,2940,117534,4316,65106
Eastridge Drive,Anchorage,AK,99501,61.2055,-149.84546,2,1,80,248902,149000,7256,87836,2940,117534,4316,65106
Monticello Court,Anchorage,AK,99503,61.190582,-149.89128,2,2,116,248902,217500,6167,73025,2999,85128,3168,58358
West 22nd Avenue,Anchorage,AK,99503,61.20091,-149.88617,2,2,92,248902,204900,6167,73025,2999,85128,3168,58358
East 17th Avenue,Anchorage,AK,99501,61.205196,-149.8551,1,2,76,248902,150000,7256,87836,2940,117534,4316,65106
I Street,Anchorage,AK,99501,61.21068,-149.89989,2,2,111,248902,225000,7256,87836,2940,117534,4316,65106
West 22nd Avenue,Anchorage,AK,99503,61.20091,-149.88585,2,2,99,248902,216000,6167,73025,2999,85128,3168,58358
North Star Street,Anchorage,AK,99503,61.20083,-149.9007,2,2,125,248902,260000,6167,73025,2999,85128,3168,58358
East 14th Avenue,Anchorage,AK,99501,61.208973,-149.87817,2,1,70,248902,100700,7256,87836,2940,117534,4316,65106
Montpelier Court,Anchorage,AK,99503,61.1912,-149.89127,2,2,116,248902,219900,6167,73025,2999,85128,3168,58358
Latouche Street,Anchorage,AK,99501,61.20855,-149.86044,3,4,180,248902,355000,7256,87836,2940,117534,4316,65106
East 12th Avenue,Anchorage,AK,99501,61.210938,-149.8655,3,3,122,248902,119000,7256,87836,2940,117534,4316,65106
I Street,Anchorage,AK,99501,61.21068,-149.89989,2,2,104,248902,370000,7256,87836,2940,117534,4316,65106
Potlatch Circle,Anchorage,AK,99503,61.2017,-149.90158,3,2,169,248902,354900,6167,73025,2999,85128,3168,58358
East 11th Avenue,Anchorage,AK,99501,61.210808,-149.87889,1,1,65,248902,135000,7256,87836,2940,117534,4316,65106
Top Rail Lane,Anchorage,AK,99501,61.22063,-149.89694,2,3,158,248902,699900,7256,87836,2940,117534,4316,65106
Top Rail Lane,Anchorage,AK,99501,61.2207,-149.89656,2,3,158,248902,702000,7256,87836,2940,117534,4316,65106
North C Street,Anchorage,AK,99501,61.221798,-149.88705,2,3,158,248902,699900,7256,87836,2940,117534,4316,65106
Top Rail Lane,Anchorage,AK,99501,61.22066,-149.89677,2,3,158,248902,702900,7256,87836,2940,117534,4316,65106
I Street,Anchorage,AK,99501,61.21036,-149.90125,2,2,98,248902,345000,7256,87836,2940,117534,4316,65106
East 16th Avenue,Anchorage,AK,99501,61.20605,-149.8606,2,2,172,248902,245900,7256,87836,2940,117534,4316,65106
Denali Street,Anchorage,AK,99503,61.180126,-149.87733,4,2,143,248902,219000,6167,73025,2999,85128,3168,58358
East 17th Avenue,Anchorage,AK,99501,61.205196,-149.8551,2,2,76,248902,139900,7256,87836,2940,117534,4316,65106
Dailey Avenue,Anchorage,AK,99515,61.110565,-149.87357,2,2,87,248902,190000,7624,124110,5397,131463,2227,91008
Bona Kim Loop,Anchorage,AK,99515,61.10677,-149.8578,3,3,171,248902,347900,7624,124110,5397,131463,2227,91008
Dailey Avenue,Anchorage,AK,99515,61.11097,-149.87523,3,2,105,248902,210000,7624,124110,5397,131463,2227,91008
Coral Reef Place,Anchorage,AK,99515,61.111748,-149.87396,3,2,116,248902,275000,7624,124110,5397,131463,2227,91008
Pacific Place,Anchorage,AK,99501,61.21602,-149.90623,2,3,124,248902,429900,7256,87836,2940,117534,4316,65106
Woodroe Lane,Anchorage,AK,99507,61.16831,-149.85173,3,2,127,248902,272500,13485,115895,9166,130234,4319,78815
L Street,Anchorage,AK,99501,61.21715,-149.9043,2,2,151,248902,789900,7256,87836,2940,117534,4316,65106
Lumbis Avenue,Anchorage,AK,99518,61.15152,-149.8676,2,2,95,248902,239000,4172,94295,2369,106317,1803,73882
Meadow Street,Anchorage,AK,99507,61.15297,-149.85172,4,2,126,248902,235000,13485,115895,9166,130234,4319,78815
East 56th Avenue,Anchorage,AK,99518,61.16988,-149.87497,2,2,69,248902,182500,4172,94295,2369,106317,1803,73882
Abbington Court,Anchorage,AK,99503,61.176567,-149.86269,2,2,90,248902,240000,6167,73025,2999,85128,3168,58358
Taku / Campbell,Anchorage,AK,99518,61.1553,-149.88428,2,2,69,248902,135000,4172,94295,2369,106317,1803,73882
Fairweather Drive,Anchorage,AK,99518,61.16327,-149.87207,2,3,147,248902,280000,4172,94295,2369,106317,1803,73882
Meadow Street,Anchorage,AK,99507,61.154484,-149.85172,2,2,102,248902,225000,13485,115895,9166,130234,4319,78815
East 73rd Avenue,Anchorage,AK,99518,61.154392,-149.86992,3,3,159,248902,439900,4172,94295,2369,106317,1803,73882
N Street,Anchorage,AK,99501,61.21545,-149.90778,2,2,106,248902,396000,7256,87836,2940,117534,4316,65106
Hillcrest & Romig Place ESE,Anchorage,AK,99503,61.20056,-149.90974,1,1,58,248902,133000,6167,73025,2999,85128,3168,58358
Evander Drive,Anchorage,AK,99518,61.151814,-149.87283,3,3,161,248902,300000,4172,94295,2369,106317,1803,73882
O Street,Anchorage,AK,99501,61.2154,-149.90953,2,2,106,248902,370000,7256,87836,2940,117534,4316,65106
Chugach Meadows Loop,Anchorage,AK,99507,61.154293,-149.85236,2,2,102,248902,224900,13485,115895,9166,130234,4319,78815
Meadow Street,Anchorage,AK,99507,61.15765,-149.85184,2,2,93,248902,220000,13485,115895,9166,130234,4319,78815
Meadow Street,Anchorage,AK,99507,61.153324,-149.85172,3,2,103,248902,205000,13485,115895,9166,130234,4319,78815
East 17th Avenue,Anchorage,AK,99501,61.205196,-149.8551,1,2,75,248902,114000,7256,87836,2940,117534,4316,65106
I Street,Anchorage,AK,99501,61.21068,-149.89989,2,2,192,248902,835000,7256,87836,2940,117534,4316,65106
Dailey Avenue,Anchorage,AK,99515,61.110283,-149.87604,3,3,153,248902,350000,7624,124110,5397,131463,2227,91008
Pheasant Avenue,Homer,AK,99603,59.715946,-151.30392,2,2,116,5830,375000,4243,83219,2591,98487,1652,55565
Bay Avenue,Homer,AK,99603,59.638847,-151.50467,4,2,117,5830,279000,4243,83219,2591,98487,1652,55565
Auk Street,Kenai,AK,99611,60.559788,-151.20656,3,3,127,7799,99000,5360,84095,3239,97022,2121,59561
Hightower Road,Girdwood,AK,99587,60.9629,-149.1336,1,1,75,1037,375000,894,119128,427,152558,467,76586
Crystal Mountain Road,Girdwood,AK,99587,60.961185,-149.10796,1,1,61,1037,380000,894,119128,427,152558,467,76586
Hightower Road,Girdwood,AK,99587,60.965008,-149.13211,2,2,102,1037,489500,894,119128,427,152558,467,76586
Bowpicker Lane,Kenai,AK,99611,60.532593,-151.25813,3,3,265,7799,769999,5360,84095,3239,97022,2121,59561
Bowpicker Lane,Kenai,AK,99611,60.532593,-151.25813,3,4,210,7799,659999,5360,84095,3239,97022,2121,59561
Powder Drive,Girdwood,AK,99587,60.9587,-149.11517,3,3,197,1037,799000,894,119128,427,152558,467,76586
Powder Drive,Girdwood,AK,99587,60.958702,-149.1152,3,3,197,1037,799000,894,119128,427,152558,467,76586
Hightower Road,Girdwood,AK,99587,60.965393,-149.13089,2,2,92,1037,449999,894,119128,427,152558,467,76586
Powder Drive,Girdwood,AK,99587,60.958748,-149.11449,3,3,197,1037,799000,894,119128,427,152558,467,76586
Powder Drive,Girdwood,AK,99587,60.958702,-149.11542,3,3,197,1037,799000,894,119128,427,152558,467,76586
Powder Drive,Girdwood,AK,99587,60.958702,-149.11537,3,3,197,1037,799000,894,119128,427,152558,467,76586
Powder Drive,Girdwood,AK,99587,60.958706,-149.11467,3,3,197,1037,799000,894,119128,427,152558,467,76586
Alyeska Highway,Girdwood,AK,99587,60.95834,-149.15201,3,3,158,1037,715000,894,119128,427,152558,467,76586
Ocean Point Drive,Anchorage,AK,99515,61.1117,-149.87154,2,2,90,248902,219900,7624,124110,5397,131463,2227,91008
Johns Road,Anchorage,AK,99515,61.11212,-149.87848,3,3,175,248902,490000,7624,124110,5397,131463,2227,91008
Fairweather Drive,Anchorage,AK,99518,61.15952,-149.87268,3,3,138,248902,299900,4172,94295,2369,106317,1803,73882
Merlin Loop,Anchorage,AK,99518,61.15906,-149.86743,3,2,122,248902,255000,4172,94295,2369,106317,1803,73882
Denali Street,Anchorage,AK,99518,61.16876,-149.87663,2,2,74,248902,175000,4172,94295,2369,106317,1803,73882
Evander Drive,Anchorage,AK,99518,61.151814,-149.87315,3,3,152,248902,355500,4172,94295,2369,106317,1803,73882
Meadow Street,Anchorage,AK,99507,61.15312,-149.85216,4,2,124,248902,238000,13485,115895,9166,130234,4319,78815
Fairweather Drive,Anchorage,AK,99518,61.159184,-149.87299,3,2,137,248902,285000,4172,94295,2369,106317,1803,73882
Hardwood Court,Anchorage,AK,99507,61.169495,-149.85144,3,2,127,248902,313000,13485,115895,9166,130234,4319,78815
Meadow Street,Anchorage,AK,99507,61.153175,-149.85115,2,2,95,248902,209500,13485,115895,9166,130234,4319,78815
P Street,Anchorage,AK,99501,61.212074,-149.91203,2,1,65,248902,140000,7256,87836,2940,117534,4316,65106
Wildrose Court,Anchorage,AK,99518,61.160007,-149.87057,2,2,103,248902,155000,4172,94295,2369,106317,1803,73882
Pacific Place,Anchorage,AK,99501,61.216293,-149.90623,2,2,111,248902,499000,7256,87836,2940,117534,4316,65106
West 12th Avenue,Anchorage,AK,99501,61.21054,-149.91057,2,2,157,248902,395000,7256,87836,2940,117534,4316,65106
Foxridge Circle,Anchorage,AK,99518,61.15614,-149.88019,3,2,133,248902,265000,4172,94295,2369,106317,1803,73882
East 56th Avenue,Anchorage,AK,99518,61.16988,-149.87497,2,1,69,248902,165000,4172,94295,2369,106317,1803,73882
East Dowling Road,Anchorage,AK,99518,61.166065,-149.87636,3,3,155,248902,285000,4172,94295,2369,106317,1803,73882
Fairweather Drive,Anchorage,AK,99518,61.15934,-149.87286,3,3,168,248902,330000,4172,94295,2369,106317,1803,73882
Spenard Road,Anchorage,AK,99503,61.203285,-149.90579,3,3,242,248902,599900,6167,73025,2999,85128,3168,58358
M Street,Anchorage,AK,99501,61.21833,-149.90546,1,2,113,248902,263000,7256,87836,2940,117534,4316,65106
Old Seward Highway,Anchorage,AK,99518,61.159218,-149.86533,3,2,120,248902,224900,4172,94295,2369,106317,1803,73882
Marsha Loop,Anchorage,AK,99507,61.14745,-149.83134,3,3,136,248902,319500,13485,115895,9166,130234,4319,78815
Independence Drive,Anchorage,AK,99507,61.133038,-149.84172,2,1,71,248902,155000,13485,115895,9166,130234,4319,78815
Jamestown Circle,Anchorage,AK,99507,61.129005,-149.84492,1,1,59,248902,169000,13485,115895,9166,130234,4319,78815
Elcadore Drive,Anchorage,AK,99507,61.123444,-149.85248,3,3,111,248902,234500,13485,115895,9166,130234,4319,78815
O'Brien Street,Anchorage,AK,99507,61.15815,-149.83575,3,2,136,248902,259000,13485,115895,9166,130234,4319,78815
Silver Chase Court,Anchorage,AK,99507,61.16677,-149.82791,3,2,129,248902,260000,13485,115895,9166,130234,4319,78815
East 73rd Avenue,Anchorage,AK,99507,61.154564,-149.84389,3,2,133,248902,319900,13485,115895,9166,130234,4319,78815
Zion Court,Anchorage,AK,99507,61.15342,-149.83531,4,3,214,248902,421000,13485,115895,9166,130234,4319,78815
Happy Lane,Anchorage,AK,99507,61.1795,-149.82962,1,1,59,248902,95000,13485,115895,9166,130234,4319,78815
East 73rd Avenue,Anchorage,AK,99507,61.154564,-149.84407,2,2,133,248902,249000,13485,115895,9166,130234,4319,78815
Elcadore Drive,Anchorage,AK,99507,61.12342,-149.8533,2,2,91,248902,197500,13485,115895,9166,130234,4319,78815
Piper Street,Anchorage,AK,99507,61.17878,-149.82391,3,2,94,248902,225000,13485,115895,9166,130234,4319,78815
Marsha Loop,Anchorage,AK,99507,61.14745,-149.83134,3,3,137,248902,342000,13485,115895,9166,130234,4319,78815
Vanguard Drive,Anchorage,AK,99507,61.132484,-149.8464,2,1,76,248902,150000,13485,115895,9166,130234,4319,78815
Laurel Street,Anchorage,AK,99507,61.165894,-149.83394,3,2,129,248902,275000,13485,115895,9166,130234,4319,78815
Jamestown Drive,Anchorage,AK,99507,61.128567,-149.845,2,1,68,248902,159000,13485,115895,9166,130234,4319,78815
Marsha Loop,Anchorage,AK,99507,61.14745,-149.83134,3,2,137,248902,319999,13485,115895,9166,130234,4319,78815
East 20th Avenue,Anchorage,AK,99508,61.20273,-149.81732,2,1,87,248902,270000,12815,80703,7732,88692,5083,61314
Reka Drive,Anchorage,AK,99508,61.20402,-149.80585,2,2,99,248902,135000,12815,80703,7732,88692,5083,61314
Russian Jack Park,Anchorage,AK,99508,61.202625,-149.80672,2,2,87,248902,155900,12815,80703,7732,88692,5083,61314
Tamarra Circle,Anchorage,AK,99508,61.20402,-149.8033,3,2,131,248902,165000,12815,80703,7732,88692,5083,61314
East 42nd Avenue,Anchorage,AK,99508,61.18219,-149.82979,2,2,74,248902,165000,12815,80703,7732,88692,5083,61314
Jamestown Drive,Anchorage,AK,99507,61.128227,-149.84563,2,1,68,248902,159000,13485,115895,9166,130234,4319,78815
Bragaw Square Place,Anchorage,AK,99508,61.203224,-149.80942,3,2,125,248902,199900,12815,80703,7732,88692,5083,61314
East 42nd Avenue,Anchorage,AK,99508,61.182777,-149.82567,2,2,83,248902,165000,12815,80703,7732,88692,5083,61314
East Tudor Road,Anchorage,AK,99508,61.181347,-149.83098,2,2,75,248902,165000,12815,80703,7732,88692,5083,61314
East 42nd Avenue,Anchorage,AK,99508,61.182777,-149.8254,2,2,83,248902,155000,12815,80703,7732,88692,5083,61314
Alexander Avenue,Anchorage,AK,99508,61.203083,-149.81558,2,2,84,248902,250000,12815,80703,7732,88692,5083,61314
Delridge Circle,Anchorage,AK,99507,61.15059,-149.82721,3,3,151,248902,380000,13485,115895,9166,130234,4319,78815
Grumman Street,Anchorage,AK,99507,61.177357,-149.8214,3,3,163,248902,365000,13485,115895,9166,130234,4319,78815
Marsha Loop,Anchorage,AK,99507,61.14745,-149.83134,3,2,133,248902,309900,13485,115895,9166,130234,4319,78815
Lauren Creek Loop,Anchorage,AK,99507,61.173,-149.8338,3,2,127,248902,275000,13485,115895,9166,130234,4319,78815
Russian Jack Park,Anchorage,AK,99508,61.202625,-149.80637,2,2,88,248902,144500,12815,80703,7732,88692,5083,61314
Lumbis Avenue,Anchorage,AK,99518,61.149925,-149.8681,2,2,111,248902,190000,4172,94295,2369,106317,1803,73882
Wright Street,Anchorage,AK,99507,61.17973,-149.82755,2,1,77,248902,89500,13485,115895,9166,130234,4319,78815
Lumbis Avenue,Anchorage,AK,99518,61.149925,-149.8681,2,1,141,248902,195000,4172,94295,2369,106317,1803,73882
Vanguard Drive,Anchorage,AK,99507,61.132656,-149.84724,2,1,77,248902,164000,13485,115895,9166,130234,4319,78815
Russian Jack Park,Anchorage,AK,99508,61.202625,-149.80629,2,2,88,248902,148000,12815,80703,7732,88692,5083,61314
Russian Jack Park,Anchorage,AK,99508,61.202625,-149.80644,2,2,87,248902,134900,12815,80703,7732,88692,5083,61314
East 73rd Avenue,Anchorage,AK,99507,61.154564,-149.84404,3,2,134,248902,239900,13485,115895,9166,130234,4319,78815
Meadow Lark Way,Anchorage,AK,99507,61.165085,-149.83199,2,2,98,248902,229000,13485,115895,9166,130234,4319,78815
East Weile Avenue,Spokane,WA,99208,47.72264,-117.40407,2,1,74,426849,200000,22139,84713,14866,100911,7273,46366
Tanglewood Lakes Circle,Anchorage,AK,99516,61.116356,-149.85414,3,3,214,248902,495000,7117,191131,5602,205106,1515,117927
Jamestown Drive,Anchorage,AK,99507,61.12785,-149.84373,2,1,68,248902,125900,13485,115895,9166,130234,4319,78815
Hollybrook Circle,Anchorage,AK,99507,61.12635,-149.85045,3,3,161,248902,364900,13485,115895,9166,130234,4319,78815
Elcadore Drive,Anchorage,AK,99507,61.123905,-149.85213,3,3,110,248902,229000,13485,115895,9166,130234,4319,78815
Boundary Avenue,Anchorage,AK,99504,61.22404,-149.7371,2,1,91,248902,185000,15522,91364,10230,101983,5292,63559
East 41st Court,Anchorage,AK,99504,61.183853,-149.76364,3,2,160,248902,270000,15522,91364,10230,101983,5292,63559
Northview Drive,Anchorage,AK,99504,61.208073,-149.72768,2,1,94,248902,149000,15522,91364,10230,101983,5292,63559
Northview Drive,Anchorage,AK,99504,61.206406,-149.72696,2,1,94,248902,147900,15522,91364,10230,101983,5292,63559
Whispering Loop,Anchorage,AK,99504,61.22071,-149.75987,3,3,141,248902,299000,15522,91364,10230,101983,5292,63559
Whispering Loop,Anchorage,AK,99504,61.22072,-149.76021,3,3,152,248902,410000,15522,91364,10230,101983,5292,63559
East Northern Lights Boulevard,Anchorage,AK,99504,61.195133,-149.76,2,2,104,248902,218500,15522,91364,10230,101983,5292,63559
Matthew Paul Way,Anchorage,AK,99504,61.222927,-149.76213,3,2,119,248902,215000,15522,91364,10230,101983,5292,63559
Gold Kings Circle,Anchorage,AK,99504,61.22389,-149.75307,3,2,101,248902,189500,15522,91364,10230,101983,5292,63559
Normanshire Court,Anchorage,AK,99504,61.199543,-149.7313,3,2,141,248902,265000,15522,91364,10230,101983,5292,63559
Pinnacle Circle,Anchorage,AK,99504,61.18256,-149.73126,3,2,123,248902,269500,15522,91364,10230,101983,5292,63559
Moonrise Ridge Place,Anchorage,AK,99516,61.1171,-149.8542,3,4,202,248902,525000,7117,191131,5602,205106,1515,117927
Boundary Avenue,Anchorage,AK,99504,61.22401,-149.71852,2,1,76,248902,89990,15522,91364,10230,101983,5292,63559
Ambler Lane,Anchorage,AK,99504,61.181454,-149.74799,2,2,69,248902,191000,15522,91364,10230,101983,5292,63559
West Northridge Court,Spokane,WA,99208,47.717968,-117.43981,2,1,79,426849,258000,22139,84713,14866,100911,7273,46366
Shageluk Street,Anchorage,AK,99504,61.22136,-149.76668,3,3,137,248902,345000,15522,91364,10230,101983,5292,63559
Gemini Drive,Anchorage,AK,99504,61.183563,-149.7502,3,2,143,248902,260000,15522,91364,10230,101983,5292,63559
East 12th Avenue,Anchorage,AK,99504,61.210934,-149.76497,3,2,107,248902,135000,15522,91364,10230,101983,5292,63559
North Country Homes Boulevard,Spokane,WA,99218,47.739334,-117.415085,2,2,95,426849,250000,6490,78905,3711,100584,2779,48042
Brookshire Loop,Anchorage,AK,99504,61.19997,-149.7312,3,2,126,248902,260000,15522,91364,10230,101983,5292,63559
Muldoon Road,Anchorage,AK,99504,61.21794,-149.7328,3,3,164,248902,265000,15522,91364,10230,101983,5292,63559
Augusta Circle,Anchorage,AK,99504,61.18762,-149.72044,3,2,97,248902,249000,15522,91364,10230,101983,5292,63559
Gold Kings Avenue,Anchorage,AK,99504,61.22389,-149.75232,3,2,116,248902,199000,15522,91364,10230,101983,5292,63559
Early View Drive,Anchorage,AK,99504,61.206745,-149.71881,3,2,93,248902,222000,15522,91364,10230,101983,5292,63559
Defiance Street,Anchorage,AK,99504,61.18158,-149.77063,2,2,136,248902,280000,15522,91364,10230,101983,5292,63559
Grand Larry Street,Anchorage,AK,99504,61.22313,-149.72946,3,2,119,248902,232000,15522,91364,10230,101983,5292,63559
Pioneer Drive,Anchorage,AK,99504,61.18444,-149.73212,3,3,128,248902,225000,15522,91364,10230,101983,5292,63559
Grand Larry Street,Anchorage,AK,99504,61.22309,-149.7299,2,1,72,248902,78000,15522,91364,10230,101983,5292,63559
Gold Kings Avenue,Anchorage,AK,99504,61.22389,-149.75082,3,2,103,248902,210000,15522,91364,10230,101983,5292,63559
Krane Drive,Anchorage,AK,99504,61.219616,-149.75653,2,1,76,248902,105000,15522,91364,10230,101983,5292,63559
Boundary Avenue,Anchorage,AK,99504,61.22404,-149.73964,3,2,124,248902,195000,15522,91364,10230,101983,5292,63559
Matthew Paul Way,Anchorage,AK,99504,61.222855,-149.76233,2,2,109,248902,212000,15522,91364,10230,101983,5292,63559
East 12th Avenue,Anchorage,AK,99504,61.211082,-149.77005,3,2,145,248902,232000,15522,91364,10230,101983,5292,63559
Creekside Street,Anchorage,AK,99504,61.220966,-149.7407,3,4,260,248902,380000,15522,91364,10230,101983,5292,63559
Boundary Avenue,Anchorage,AK,99504,61.22404,-149.73817,2,2,88,248902,145000,15522,91364,10230,101983,5292,63559
Debarr Road,Anchorage,AK,99504,61.209858,-149.77034,2,2,100,248902,170000,15522,91364,10230,101983,5292,63559
Neighbor Drive,Anchorage,AK,99504,61.21925,-149.74577,2,2,80,248902,199000,15522,91364,10230,101983,5292,63559
Astonshire Court,Anchorage,AK,99504,61.199104,-149.73167,3,2,141,248902,249500,15522,91364,10230,101983,5292,63559
Grand Larry Street,Anchorage,AK,99504,61.222507,-149.72975,2,2,103,248902,162000,15522,91364,10230,101983,5292,63559
Boundary Avenue,Anchorage,AK,99504,61.22404,-149.7378,2,2,87,248902,148250,15522,91364,10230,101983,5292,63559
Baxter Road,Anchorage,AK,99504,61.19499,-149.76312,2,2,88,248902,210000,15522,91364,10230,101983,5292,63559
Shallow Pool Drive,Anchorage,AK,99504,61.207874,-149.73737,2,2,112,248902,269900,15522,91364,10230,101983,5292,63559
Grand Larry Street,Anchorage,AK,99504,61.222507,-149.72975,2,2,103,248902,170000,15522,91364,10230,101983,5292,63559
Turf Court,Anchorage,AK,99504,61.208218,-149.7204,2,1,86,248902,175000,15522,91364,10230,101983,5292,63559
Boundary Avenue,Anchorage,AK,99504,61.22404,-149.73955,3,2,112,248902,235000,15522,91364,10230,101983,5292,63559
Matthew Paul Way,Anchorage,AK,99504,61.222813,-149.7621,3,2,119,248902,215000,15522,91364,10230,101983,5292,63559
Shageluk Street,Anchorage,AK,99504,61.22173,-149.76727,4,3,158,248902,437000,15522,91364,10230,101983,5292,63559
Shageluk Street,Anchorage,AK,99504,61.221622,-149.7672,4,3,169,248902,431500,15522,91364,10230,101983,5292,63559
Shageluk Street,Anchorage,AK,99504,61.221912,-149.7674,4,3,158,248902,437000,15522,91364,10230,101983,5292,63559
Shageluk Street,Anchorage,AK,99504,61.22157,-149.76715,4,3,169,248902,431500,15522,91364,10230,101983,5292,63559
Shageluk Street,Anchorage,AK,99504,61.221478,-149.76709,3,3,136,248902,410000,15522,91364,10230,101983,5292,63559
Shageluk Street,Anchorage,AK,99504,61.221947,-149.76741,4,3,158,248902,437000,15522,91364,10230,101983,5292,63559
Shageluk Street,Anchorage,AK,99504,61.221424,-149.76707,3,3,136,248902,410000,15522,91364,10230,101983,5292,63559
Burl Court,Anchorage,AK,99504,61.18769,-149.76236,3,2,162,248902,215000,15522,91364,10230,101983,5292,63559
Gate Creek Drive,Anchorage,AK,99502,61.151638,-149.99011,3,3,136,248902,399000,8994,118867,6350,134240,2644,77261
Gate Creek Drive,Anchorage,AK,99502,61.15155,-149.99243,3,2,136,248902,399000,8994,118867,6350,134240,2644,77261
Camila Court,Anchorage,AK,99508,61.21003,-149.79543,3,2,121,248902,240000,12815,80703,7732,88692,5083,61314
Chilkoot Court,Anchorage,AK,99504,61.18292,-149.7744,2,2,92,248902,220000,15522,91364,10230,101983,5292,63559
Boniface Parkway,Anchorage,AK,99504,61.18991,-149.7784,2,2,96,248902,200000,15522,91364,10230,101983,5292,63559
Reka Drive,Anchorage,AK,99508,61.20454,-149.80534,3,2,103,248902,140000,12815,80703,7732,88692,5083,61314
Alora Loop,Anchorage,AK,99504,61.218346,-149.77725,4,2,191,248902,285000,15522,91364,10230,101983,5292,63559
Russian Jack Park,Anchorage,AK,99508,61.20415,-149.79527,2,1,80,248902,99000,12815,80703,7732,88692,5083,61314
Reka Drive,Anchorage,AK,99508,61.204144,-149.79819,2,1,63,248902,115000,12815,80703,7732,88692,5083,61314
McCarrey Street,Anchorage,AK,99508,61.22143,-149.7922,1,1,54,248902,77500,12815,80703,7732,88692,5083,61314
Russian Jack Park,Anchorage,AK,99508,61.204155,-149.79411,3,2,99,248902,115500,12815,80703,7732,88692,5083,61314
East 4th Avenue,Anchorage,AK,99508,61.21818,-149.78189,1,1,56,248902,114900,12815,80703,7732,88692,5083,61314
McCarrey Street,Anchorage,AK,99508,61.222565,-149.79161,1,1,55,248902,52000,12815,80703,7732,88692,5083,61314
Reka Drive,Anchorage,AK,99508,61.20454,-149.80415,2,2,101,248902,135000,12815,80703,7732,88692,5083,61314
Bryn Mawr Court,Anchorage,AK,99508,61.194668,-149.79004,2,2,88,248902,210000,12815,80703,7732,88692,5083,61314
Eastgate Place,Anchorage,AK,99504,61.191364,-149.7776,2,2,96,248902,184900,15522,91364,10230,101983,5292,63559
Reka Drive,Anchorage,AK,99508,61.204258,-149.80049,2,1,63,248902,99500,12815,80703,7732,88692,5083,61314
Alora Loop,Anchorage,AK,99504,61.218216,-149.77702,3,2,192,248902,280000,15522,91364,10230,101983,5292,63559
Easthaven Circle,Anchorage,AK,99508,61.197002,-149.79266,3,2,136,248902,275000,12815,80703,7732,88692,5083,61314
Russian Jack Park,Anchorage,AK,99508,61.212627,-149.79823,1,1,53,248902,72000,12815,80703,7732,88692,5083,61314
East 38th Court,Anchorage,AK,99504,61.186935,-149.7779,4,3,152,248902,399000,15522,91364,10230,101983,5292,63559
Easthaven Circle,Anchorage,AK,99508,61.197063,-149.79266,3,2,125,248902,262000,12815,80703,7732,88692,5083,61314
Reka Drive,Anchorage,AK,99508,61.20454,-149.8041,2,1,101,248902,145000,12815,80703,7732,88692,5083,61314
4th Avenue & Boniface ESE,Anchorage,AK,99504,61.218616,-149.77782,4,2,205,248902,295000,15522,91364,10230,101983,5292,63559
Reka Drive,Anchorage,AK,99508,61.20454,-149.80412,3,2,131,248902,165000,12815,80703,7732,88692,5083,61314
Russian Jack Park,Anchorage,AK,99508,61.212627,-149.79823,1,1,50,248902,74900,12815,80703,7732,88692,5083,61314
Reka Drive,Anchorage,AK,99508,61.20454,-149.80528,2,2,106,248902,145000,12815,80703,7732,88692,5083,61314
Glacier Street,Anchorage,AK,99508,61.200497,-149.7869,2,2,96,248902,123950,12815,80703,7732,88692,5083,61314
Reka Drive,Anchorage,AK,99508,61.20415,-149.79498,1,1,61,248902,79000,12815,80703,7732,88692,5083,61314
Russian Jack Park,Anchorage,AK,99508,61.204163,-149.79353,3,2,99,248902,113900,12815,80703,7732,88692,5083,61314
Glacier Street,Anchorage,AK,99508,61.20009,-149.7869,2,2,95,248902,135000,12815,80703,7732,88692,5083,61314
Scenic Way,Anchorage,AK,99501,61.20823,-149.91695,2,2,124,248902,500000,7256,87836,2940,117534,4316,65106
East 43rd Avenue,Anchorage,AK,99508,61.181313,-149.78712,2,2,71,248902,120000,12815,80703,7732,88692,5083,61314
None,Spokane,WA,99202,47.6621,-117.404144,3,2,157,426849,640000,7852,59135,3952,68384,3900,46397
Russian Jack Park,Anchorage,AK,99508,61.204155,-149.79411,3,2,99,248902,113900,12815,80703,7732,88692,5083,61314
West 6th Avenue,Spokane,WA,99204,47.65005,-117.42836,3,2,145,426849,399000,3716,57309,1441,68387,2275,49429
Little Bear Place,Anchorage,AK,99504,61.187347,-149.77711,3,3,154,248902,339900,15522,91364,10230,101983,5292,63559
U-MED District,Anchorage,AK,99508,61.184013,-149.78006,2,1,73,248902,139000,12815,80703,7732,88692,5083,61314
Reka Drive,Anchorage,AK,99508,61.204483,-149.8,2,1,63,248902,110000,12815,80703,7732,88692,5083,61314
Reka Drive,Anchorage,AK,99508,61.20454,-149.80531,2,2,106,248902,142000,12815,80703,7732,88692,5083,61314
None,Spokane,WA,99202,47.6621,-117.404144,2,3,279,426849,795000,7852,59135,3952,68384,3900,46397
South Coeur d'Alene Street,Spokane,WA,99201,47.654793,-117.450294,2,2,100,426849,339000,7360,50463,2036,74346,5324,40195
West 1st Avenue,Spokane,WA,99201,47.65639,-117.418915,1,1,103,426849,350000,7360,50463,2036,74346,5324,40195
West 6th Avenue,Spokane,WA,99204,47.650726,-117.41546,2,2,102,426849,239900,3716,57309,1441,68387,2275,49429
West Cliff Drive,Spokane,WA,99204,47.645203,-117.42497,2,1,91,426849,260000,3716,57309,1441,68387,2275,49429
West 5th Avenue,Spokane,WA,99204,47.650505,-117.42199,2,2,130,426849,535000,3716,57309,1441,68387,2275,49429
West 6th Avenue,Spokane,WA,99204,47.65005,-117.42836,2,2,107,426849,300000,3716,57309,1441,68387,2275,49429
West Wilson Avenue,Spokane,WA,99201,47.657707,-117.43621,3,2,155,426849,435000,7360,50463,2036,74346,5324,40195
East Rockwood Boulevard,Spokane,WA,99202,47.645836,-117.4071,1,1,53,426849,105000,7852,59135,3952,68384,3900,46397
East 9th Avenue,Spokane,WA,99202,47.646885,-117.406105,2,1,77,426849,215000,7852,59135,3952,68384,3900,46397
East 9th Avenue,Spokane,WA,99202,47.646885,-117.406105,1,1,65,426849,165000,7852,59135,3952,68384,3900,46397
South Coeur d'Alene Street,Spokane,WA,99201,47.65511,-117.44946,2,2,100,426849,330000,7360,50463,2036,74346,5324,40195
West Riverside Avenue,Spokane,WA,99201,47.65732,-117.44007,1,2,90,426849,535000,7360,50463,2036,74346,5324,40195
West 2nd Avenue,Spokane,WA,99201,47.65498,-117.419075,2,2,107,426849,350000,7360,50463,2036,74346,5324,40195
None,Spokane Valley,WA,99212,47.651283,-117.3238,2,1,75,99275,230000,8786,75877,5268,91315,3518,50706
None,Spokane Valley,WA,99212,47.651737,-117.32111,2,1,72,99275,200000,8786,75877,5268,91315,3518,50706
East 6th Avenue,Spokane Valley,WA,99212,47.65146,-117.32297,3,1,94,99275,269900,8786,75877,5268,91315,3518,50706
East 6th Avenue,Spokane Valley,WA,99212,47.650616,-117.323845,2,1,75,99275,239900,8786,75877,5268,91315,3518,50706
None,Spokane,WA,99212,47.651295,-117.32379,2,2,92,426849,250000,8786,75877,5268,91315,3518,50706
East 6th Avenue,Spokane Valley,WA,99212,47.650616,-117.323845,2,1,75,99275,240000,8786,75877,5268,91315,3518,50706
None,Spokane,WA,99212,47.651283,-117.3238,2,1,75,426849,240000,8786,75877,5268,91315,3518,50706
West 35th Avenue,Anchorage,AK,99517,61.18913,-149.94191,3,2,114,248902,217000,6892,111971,3866,131065,3026,82685
Lois Drive,Anchorage,AK,99517,61.193317,-149.92009,1,1,53,248902,105000,6892,111971,3866,131065,3026,82685
West 34th Avenue,Anchorage,AK,99517,61.18991,-149.9361,3,2,114,248902,224500,6892,111971,3866,131065,3026,82685
West 34th Avenue,Anchorage,AK,99517,61.18975,-149.94154,2,2,114,248902,198000,6892,111971,3866,131065,3026,82685
Spengler Street,Richland,WA,99354,46.318623,-119.27652,2,2,128,57353,245000,9354,87239,5778,98495,3576,64698
Gage Boulevard,Richland,WA,99352,46.2268,-119.25964,2,2,96,57353,219900,12814,110006,8332,130000,4482,64839
Columbia Point Drive,Richland,WA,99352,46.26207,-119.252754,3,3,207,57353,615000,12814,110006,8332,130000,4482,64839
Dry Creek Loop,Anchorage,AK,99502,61.140434,-149.98784,3,3,157,248902,410000,8994,118867,6350,134240,2644,77261
Dry Creek Loop,Anchorage,AK,99502,61.1409,-149.98631,2,2,133,248902,454900,8994,118867,6350,134240,2644,77261
Dry Creek Loop,Anchorage,AK,99502,61.1409,-149.98631,3,3,171,248902,459900,8994,118867,6350,134240,2644,77261
Dry Creek Loop,Anchorage,AK,99502,61.1409,-149.98631,3,3,156,248902,389900,8994,118867,6350,134240,2644,77261
Dry Creek Loop,Anchorage,AK,99502,61.1409,-149.98631,3,2,158,248902,392900,8994,118867,6350,134240,2644,77261
Dry Creek Loop,Anchorage,AK,99502,61.1409,-149.98631,3,3,163,248902,444900,8994,118867,6350,134240,2644,77261
Dry Creek Loop,Anchorage,AK,99502,61.1409,-149.98631,3,3,161,248902,489900,8994,118867,6350,134240,2644,77261
Columbia Point Drive,Richland,WA,99352,46.262623,-119.25272,4,4,210,57353,545000,12814,110006,8332,130000,4482,64839
West Mockingbird Lane,Othello,WA,99344,46.796165,-119.20974,2,3,175,8241,295000,5093,69622,4261,72746,832,40424
North Lacey Street,Spokane,WA,99202,47.668766,-117.370636,4,1,107,426849,249000,7852,59135,3952,68384,3900,46397
West Dimond Boulevard,Anchorage,AK,99502,61.13774,-149.9819,2,2,121,248902,275000,8994,118867,6350,134240,2644,77261
Dry Creek Loop,Anchorage,AK,99502,61.140434,-149.98784,3,3,161,248902,465000,8994,118867,6350,134240,2644,77261
Dry Creek Loop,Anchorage,AK,99502,61.1409,-149.98631,3,3,163,248902,434900,8994,118867,6350,134240,2644,77261
Dry Creek Loop,Anchorage,AK,99502,61.141552,-149.98537,3,3,171,248902,445900,8994,118867,6350,134240,2644,77261
Dry Creek Loop,Anchorage,AK,99502,61.1409,-149.98631,3,3,161,248902,474900,8994,118867,6350,134240,2644,77261
Dry Creek Loop,Anchorage,AK,99502,61.1409,-149.98631,3,3,180,248902,504900,8994,118867,6350,134240,2644,77261
Dry Creek Loop,Anchorage,AK,99502,61.1409,-149.98631,3,3,142,248902,459900,8994,118867,6350,134240,2644,77261
Dry Creek Loop,Anchorage,AK,99502,61.1409,-149.98631,3,3,142,248902,439900,8994,118867,6350,134240,2644,77261
Southeast Sentry Drive,College Place,WA,99324,46.042503,-118.369156,4,3,229,9311,407000,3865,74311,2434,91581,1431,44381
North Crestline Street,Spokane,WA,99207,47.678432,-117.37866,1,1,66,426849,214900,12623,51883,6565,56721,6058,41592
South Rustle Street,Spokane,WA,99224,47.643303,-117.47179,3,2,156,426849,355000,9314,94741,6002,116659,3312,52296
West 30th Avenue,Kennewick,WA,99337,46.18161,-119.16365,3,2,175,240876,470000,11094,92417,8621,99169,2473,59551
Catherine Street,Walla Walla,WA,99362,46.06371,-118.33333,2,1,81,32951,239000,15734,78762,9901,97625,5833,43440
Village Way,Walla Walla,WA,99362,46.046284,-118.34734,2,2,110,32951,339900,15734,78762,9901,97625,5833,43440
East 32nd Avenue,Spokane,WA,99223,47.625446,-117.36845,2,2,106,426849,219000,13950,106385,8825,135527,5125,52676
South Regal Street,Spokane,WA,99223,47.618195,-117.36876,2,2,90,426849,275000,13950,106385,8825,135527,5125,52676
North Lemon Lane,Nine Mile Falls,WA,99026,47.733696,-117.507355,2,2,125,17528,365000,3241,93457,2515,101363,726,51633
South Regal Street,Spokane,WA,99223,47.61898,-117.36877,2,1,75,426849,180000,13950,106385,8825,135527,5125,52676
North Country Club Drive,Deer Park,WA,99006,47.96525,-117.44946,3,2,187,33599,599990,5063,72853,3515,86084,1548,40028
None,Ellensburg,WA,98926,46.98625,-120.54032,3,2,168,20679,310000,13851,75795,7468,99680,6383,46409
North Country Club Drive,Deer Park,WA,99006,47.96525,-117.44946,3,2,170,33599,499990,5063,72853,3515,86084,1548,40028
North Country Club Drive,Deer Park,WA,99006,47.96646,-117.45029,3,2,187,33599,599990,5063,72853,3515,86084,1548,40028
North Country Club Drive,Deer Park,WA,99006,47.96646,-117.45029,3,2,166,33599,487990,5063,72853,3515,86084,1548,40028
North Country Club Drive,Deer Park,WA,99006,47.96646,-117.45029,3,2,170,33599,495990,5063,72853,3515,86084,1548,40028
North Country Club Drive,Deer Park,WA,99006,47.96646,-117.45029,3,2,166,33599,485990,5063,72853,3515,86084,1548,40028
Southern Avenue,Selah,WA,98942,46.643208,-120.54077,3,3,165,7957,389000,6936,88152,4950,93877,1986,48032
South 43rd Avenue,Yakima,WA,98908,46.582535,-120.56545,3,2,117,126487,250000,14444,86599,9799,97941,4645,59642
Barge Street,Yakima,WA,98908,46.598965,-120.587135,2,3,132,126487,229000,14444,86599,9799,97941,4645,59642
Peach Tree Lane,Yakima,WA,98908,46.597008,-120.576324,2,2,88,126487,259000,14444,86599,9799,97941,4645,59642
Southeast 157th Avenue,Vancouver,WA,98684,45.61767,-122.5123,3,2,104,182792,295000,11566,88526,8033,94319,3533,68035
North 43rd Avenue,Yakima,WA,98908,46.60879,-120.56593,2,2,164,126487,359000,14444,86599,9799,97941,4645,59642
Northeast Regents Drive,Vancouver,WA,98684,45.638992,-122.53327,3,3,235,182792,419000,11566,88526,8033,94319,3533,68035
Northeast Oak Street,Pullman,WA,99163,46.731533,-117.17079,3,4,176,33974,530000,12864,59197,5014,97071,7850,33350
Terre View and Merman,Pullman,WA,99163,46.74308,-117.15479,2,2,85,33974,180000,12864,59197,5014,97071,7850,33350
North 72nd Avenue,Yakima,WA,98908,46.597622,-120.60395,2,2,135,126487,290000,14444,86599,9799,97941,4645,59642
Madera Way,Yakima,WA,98908,46.608707,-120.57422,2,2,117,126487,265000,14444,86599,9799,97941,4645,59642
North 50th Avenue,Yakima,WA,98908,46.608494,-120.57467,2,2,108,126487,269000,14444,86599,9799,97941,4645,59642
A Street,Washougal,WA,98671,45.576275,-122.33166,2,1,74,15927,215000,8423,116115,6246,128098,2177,76063
North Mount Spokane Park Drive,Mead,WA,99021,47.919075,-117.09251,2,2,81,6995,289900,3441,91986,2662,108156,779,32720
Northwest Columbia Avenue,East Wenatchee,WA,98802,47.44517,-120.306435,3,2,135,14012,470000,11530,100063,8565,103715,2965,76466
Castlerock Avenue,Wenatchee,WA,98801,47.420082,-120.3336,2,2,115,71119,399900,16754,83854,10906,97898,5848,52587
Northwest Columbia Avenue,East Wenatchee,WA,98802,47.44517,-120.306435,3,3,139,14012,449900,11530,100063,8565,103715,2965,76466
Castlerock Avenue,Wenatchee,WA,98801,47.419415,-120.33357,2,2,115,71119,399900,16754,83854,10906,97898,5848,52587
North Elliott Avenue,Wenatchee,WA,98801,47.420177,-120.33644,2,2,129,71119,420000,16754,83854,10906,97898,5848,52587
Southeast Baypoint Drive,Vancouver,WA,98683,45.602173,-122.50961,2,2,99,182792,395000,13361,94251,8130,106449,5231,70510
Southeast Baypoint Drive,Vancouver,WA,98683,45.60408,-122.509476,2,2,90,182792,349000,13361,94251,8130,106449,5231,70510
Southeast 23rd Drive,Vancouver,WA,98683,45.604362,-122.49558,3,3,160,182792,407900,13361,94251,8130,106449,5231,70510
Southeast 121st Avenue,Vancouver,WA,98683,45.616734,-122.548195,2,2,83,182792,285000,13361,94251,8130,106449,5231,70510
Northeast 54th Street,Vancouver,WA,98662,45.66224,-122.58076,2,2,102,182792,335000,12479,84052,7973,94641,4506,57717
Northeast Loowit Loop,Vancouver,WA,98662,45.65651,-122.59269,2,2,103,182792,350000,12479,84052,7973,94641,4506,57717
Northeast 44th Way,Vancouver,WA,98662,45.65408,-122.59831,2,1,73,182792,289900,12479,84052,7973,94641,4506,57717
Northeast Royal View Avenue,Vancouver,WA,98662,45.649307,-122.58368,3,3,159,182792,419000,12479,84052,7973,94641,4506,57717
North Mount Spokane Park Drive,Mead,WA,99021,47.91908,-117.092514,2,2,67,6995,225000,3441,91986,2662,108156,779,32720
Ocean Shores Boulevard Northwest,Ocean Shores,WA,98569,47.003952,-124.16626,1,1,75,6196,72999,3413,55776,2094,65421,1319,39398
West Marina Drive,Moses Lake,WA,98837,47.1048,-119.31573,2,2,96,23442,220000,15238,75311,10267,85067,4971,48252
Highview Drive,Yakima,WA,98902,46.60689,-120.557396,3,3,193,126487,277000,16484,61669,10374,68869,6110,45072
Ocean Shores Boulevard Northwest,Ocean Shores,WA,98569,47.015083,-124.16643,1,1,83,6196,239000,3413,55776,2094,65421,1319,39398
Ocean Shores Boulevard Southwest,Ocean Shores,WA,98569,46.93456,-124.17233,1,1,72,6196,249000,3413,55776,2094,65421,1319,39398
Westshore Drive Northeast,Moses Lake,WA,98837,47.114075,-119.34049,3,2,145,23442,327000,15238,75311,10267,85067,4971,48252
Englewood Avenue,Yakima,WA,98902,46.60681,-120.54943,3,3,169,126487,260000,16484,61669,10374,68869,6110,45072
Icicle Road,Leavenworth,WA,98826,47.58735,-120.67413,2,2,99,36129,525000,3273,82822,2224,99918,1049,43595
West Woodin Avenue,Chelan,WA,98816,47.83862,-120.023224,2,2,64,4174,499000,2295,78175,1456,89563,839,57592
Lake Chelan Shores Drive,Chelan,WA,98816,47.854034,-120.061295,2,2,95,4174,625000,2295,78175,1456,89563,839,57592
Cliffe Pointe Road Northwest,Quincy,WA,98848,47.09307,-119.99906,1,1,53,94389,525000,3439,77930,2838,82835,601,50076
West Woodin Avenue,Chelan,WA,98816,47.83466,-120.04717,3,2,112,4174,389900,2295,78175,1456,89563,839,57592
East Ocean Shores Boulevard Southwest,Ocean Shores,WA,98569,46.92921,-124.17246,2,2,111,6196,484900,3413,55776,2094,65421,1319,39398
Crescent Bar Road Northwest,Quincy,WA,98848,47.214153,-119.99314,2,2,73,94389,210000,3439,77930,2838,82835,601,50076
Ocean Shores Boulevard Southwest,Ocean Shores,WA,98569,46.936085,-124.17241,1,1,72,6196,199900,3413,55776,2094,65421,1319,39398
South 3rd Street,Chelan,WA,98816,47.837273,-120.02262,2,1,72,4174,380000,2295,78175,1456,89563,839,57592
Suncadia Trail,Cle Elum,WA,98922,47.20958,-121.01972,1,1,81,2662,495000,3242,82658,2059,96615,1183,54492
West Woodin Avenue,Chelan,WA,98816,47.83861,-120.02317,3,2,128,4174,889000,2295,78175,1456,89563,839,57592
Suncadia Trail,Cle Elum,WA,98922,47.20958,-121.01972,2,2,123,2662,875000,3242,82658,2059,96615,1183,54492
Cedar Court Southwest,Ocean Shores,WA,98569,46.94921,-124.17053,3,2,130,6196,349900,3413,55776,2094,65421,1319,39398
Wawona Avenue Southwest,Ocean Shores,WA,98569,46.95008,-124.14158,2,1,69,6196,299950,3413,55776,2094,65421,1319,39398
West Ocean Avenue,Westport,WA,98595,46.886696,-124.11756,1,1,79,4153,399950,1172,65509,757,75853,415,42157
West Ocean Avenue,Westport,WA,98595,46.886696,-124.11756,2,2,106,4153,350000,1172,65509,757,75853,415,42157
Suncadia Trail,Cle Elum,WA,98922,47.20958,-121.01972,1,1,81,2662,490000,3242,82658,2059,96615,1183,54492
Ocean Shores Boulevard Northwest,Ocean Shores,WA,98569,47.003407,-124.16625,1,1,62,6196,60000,3413,55776,2094,65421,1319,39398
Occidental Road,Yakima,WA,98903,46.563217,-120.6313,2,2,156,126487,475000,5711,72665,3976,83758,1735,42801
Northeast Salmon Creek Avenue,Vancouver,WA,98686,45.715954,-122.64058,1,1,62,182792,224900,7393,101021,5323,115025,2070,60616
Northeast 116th Street,Vancouver,WA,98686,45.70472,-122.65332,2,2,103,182792,224900,7393,101021,5323,115025,2070,60616
Northeast Salmon Creek Avenue,Vancouver,WA,98686,45.71566,-122.64061,2,3,108,182792,300000,7393,101021,5323,115025,2070,60616
Cleveland Avenue Southeast,Olympia,WA,98501,47.017353,-122.89915,2,2,122,200836,205000,17697,93545,11072,110860,6625,60659
Cleveland Avenue Southeast,Olympia,WA,98501,47.017353,-122.89915,2,2,121,200836,201000,17697,93545,11072,110860,6625,60659
Cleveland Avenue Southeast,Olympia,WA,98501,47.017353,-122.89915,1,2,115,200836,169000,17697,93545,11072,110860,6625,60659
Cleveland Avenue Southeast,Olympia,WA,98501,47.017353,-122.89915,2,2,121,200836,205000,17697,93545,11072,110860,6625,60659
Cleveland Avenue Southeast,Olympia,WA,98501,47.017353,-122.89915,2,1,113,200836,178000,17697,93545,11072,110860,6625,60659
Northwest 8th Avenue,Vancouver,WA,98685,45.71703,-122.67912,2,1,90,182792,290000,11502,126213,8394,143058,3108,77542
Northwest 134th Street,Vancouver,WA,98685,45.717667,-122.682526,4,2,176,182792,319900,11502,126213,8394,143058,3108,77542
Kelly Road,Vancouver,WA,98665,45.68163,-122.69237,2,1,76,182792,195000,10566,85956,7231,93996,3335,62561
Kelly Road,Vancouver,WA,98665,45.68163,-122.69237,2,1,76,182792,199900,10566,85956,7231,93996,3335,62561
Northeast 17th Avenue,Vancouver,WA,98665,45.666855,-122.65515,2,2,98,182792,249000,10566,85956,7231,93996,3335,62561
North Shore Court,Manson,WA,98831,47.886845,-120.15437,2,2,71,1760,317500,1334,69228,879,78428,455,49785
Northeast 109th Avenue,Vancouver,WA,98682,45.6497,-122.56228,2,2,87,182792,249000,22017,92051,16017,100713,6000,58799
Northeast 17th Avenue,Vancouver,WA,98665,45.666855,-122.65515,2,2,95,182792,239900,10566,85956,7231,93996,3335,62561
Northeast 16th Avenue,Vancouver,WA,98665,45.67487,-122.65559,2,1,88,182792,214900,10566,85956,7231,93996,3335,62561
Northeast 85th Street,Vancouver,WA,98665,45.6845,-122.66738,2,2,122,182792,260000,10566,85956,7231,93996,3335,62561
Evergreen Park Drive Southwest,Olympia,WA,98502,47.031933,-122.91927,3,2,162,200836,410000,13914,93287,8515,112429,5399,57416
9th at Black Lake,Olympia,WA,98502,47.039978,-122.93089,2,2,83,200836,249000,13914,93287,8515,112429,5399,57416
Southeast 17th Circle,Vancouver,WA,98664,45.610504,-122.560265,1,1,60,182792,299900,9174,86493,5996,93258,3178,67877
Southeast 17th Circle,Vancouver,WA,98664,45.610504,-122.560265,2,2,96,182792,315500,9174,86493,5996,93258,3178,67877
Southeast 17th Circle,Vancouver,WA,98664,45.610504,-122.560265,2,2,93,182792,320000,9174,86493,5996,93258,3178,67877
McCormick Street Southeast,Olympia,WA,98501,47.042458,-122.87953,2,2,127,200836,432000,17697,93545,11072,110860,6625,60659
Evergreen Park Drive Southwest,Olympia,WA,98502,47.030804,-122.915215,2,2,110,200836,319000,13914,93287,8515,112429,5399,57416
Woodard Avenue Northwest,Olympia,WA,98502,47.0592,-122.92214,4,2,168,200836,410000,13914,93287,8515,112429,5399,57416
Evergreen Park Drive Southwest,Olympia,WA,98502,47.030804,-122.915215,2,2,151,200836,569900,13914,93287,8515,112429,5399,57416
East Bay Drive Northeast,Olympia,WA,98506,47.050713,-122.892204,2,2,136,200836,349900,8443,90434,4728,113839,3715,56049
Evergreen Park Drive Southwest,Olympia,WA,98502,47.030804,-122.915215,2,2,95,200836,340000,13914,93287,8515,112429,5399,57416
East Bay Drive Northeast,Olympia,WA,98506,47.05204,-122.89232,2,2,140,200836,349900,8443,90434,4728,113839,3715,56049
Gravelly Lake Drive Southwest,Tacoma,WA,98499,47.161976,-122.52094,2,1,94,215766,245000,13123,66847,7984,75504,5139,45537
52nd Avenue West,University Place,WA,98467,47.19731,-122.50716,4,2,166,33661,435000,6113,97330,4377,113304,1736,54399
Southeast 17th Circle,Vancouver,WA,98664,45.610504,-122.560265,2,2,92,182792,325000,9174,86493,5996,93258,3178,67877
Ruby Drive Southwest,Lakewood,WA,98498,47.195255,-122.53895,2,2,111,155733,230000,11400,87719,7004,101640,4396,59174
Northeast 21st Street,Vancouver,WA,98664,45.637363,-122.56567,2,2,94,182792,287450,9174,86493,5996,93258,3178,67877
Northeast 164th Street,Ridgefield,WA,98642,45.741463,-122.6384,3,3,176,11209,325000,7419,117979,5698,133635,1721,62866
Avondale Road Southwest,Lakewood,WA,98499,47.16325,-122.522705,3,3,176,155733,460000,13123,66847,7984,75504,5139,45537
West Columbia Way,Vancouver,WA,98660,45.62373,-122.678055,1,1,93,182792,975000,5492,76699,2384,107421,3108,52647
Daniels Street,Vancouver,WA,98660,45.627636,-122.67492,2,2,94,182792,480000,5492,76699,2384,107421,3108,52647
Washington Street,Vancouver,WA,98660,45.62646,-122.6733,1,1,61,182792,263000,5492,76699,2384,107421,3108,52647
West 8th Street,Vancouver,WA,98660,45.627605,-122.67471,2,2,94,182792,539900,5492,76699,2384,107421,3108,52647
26th Street Northwest,Long Beach,WA,98631,46.37092,-124.05477,3,2,92,462081,279500,1543,54011,749,66695,794,40674
None,Long Beach,WA,98631,46.36154,-124.06443,1,2,63,462081,55000,1543,54011,749,66695,794,40674
14th Street Northwest,Long Beach,WA,98631,46.36255,-124.05791,1,2,63,462081,55000,1543,54011,749,66695,794,40674
Boulevard Avenue,Long Beach,WA,98631,46.341473,-124.05692,2,2,143,462081,359000,1543,54011,749,66695,794,40674
14th Street Northwest,Long Beach,WA,98631,46.36255,-124.05791,1,2,63,462081,50000,1543,54011,749,66695,794,40674
Pacific Highway Southwest,Lakewood,WA,98499,47.138657,-122.5245,2,1,90,155733,275000,13123,66847,7984,75504,5139,45537
26th Street Northwest,Long Beach,WA,98631,46.37118,-124.05611,3,2,89,462081,260000,1543,54011,749,66695,794,40674
97th Avenue Court West,University Place,WA,98467,47.212776,-122.56671,2,2,99,33661,310000,6113,97330,4377,113304,1736,54399
Tacoma Avenue South,Tacoma,WA,98402,47.24835,-122.44315,2,2,97,215766,399000,3737,70235,909,98985,2828,60800
West Columbia Way,Vancouver,WA,98660,45.623528,-122.67792,1,1,104,182792,929000,5492,76699,2384,107421,3108,52647
6th Avenue,Tacoma,WA,98405,47.257465,-122.44827,1,1,69,215766,275000,9882,72268,4938,88328,4944,51936
South I Street,Tacoma,WA,98405,47.24326,-122.4465,2,1,67,215766,250000,9882,72268,4938,88328,4944,51936
Dock Street,Tacoma,WA,98402,47.246605,-122.4343,2,2,111,215766,749000,3737,70235,909,98985,2828,60800
North 30th Street,Tacoma,WA,98403,47.2745,-122.46276,2,2,89,215766,499000,4197,83587,1543,132030,2654,54572
South 41st Street,Tacoma,WA,98409,47.21977,-122.469345,2,2,95,215766,350000,11116,71478,6429,77267,4687,53759
North I Street,Tacoma,WA,98403,47.26694,-122.46506,2,2,95,215766,500000,4197,83587,1543,132030,2654,54572
East Evergreen Boulevard,Vancouver,WA,98661,45.618507,-122.61649,2,2,128,182792,328000,19463,81396,11488,91650,7975,60015
Willows Road,Seaview,WA,98644,46.322433,-124.058716,2,2,110,188,405000,278,42985,142,67015,136,17895
Flora Drive,Fircrest,WA,98466,47.220257,-122.52615,3,3,156,6844,420000,11924,98706,7552,117085,4372,63397
Northeast 43rd Street,Vancouver,WA,98661,45.653183,-122.60058,1,1,57,182792,210000,19463,81396,11488,91650,7975,60015
North Hayden Island Drive,Portland,OR,97217,45.61131,-122.67241,2,2,158,2072553,575000,14838,103943,7550,117395,7288,85843
North Hayden Bay Drive,Portland,OR,97217,45.610104,-122.66878,2,1,83,2072553,275000,14838,103943,7550,117395,7288,85843
North Hayden Bay Drive,Portland,OR,97217,45.61018,-122.66861,2,1,78,2072553,425000,14838,103943,7550,117395,7288,85843
North Hayden Island Drive,Portland,OR,97217,45.61131,-122.67241,2,2,186,2072553,589000,14838,103943,7550,117395,7288,85843
North Hayden Bay Drive,Portland,OR,97217,45.610447,-122.670784,2,2,98,2072553,327000,14838,103943,7550,117395,7288,85843
North Hayden Island Drive,Portland,OR,97217,45.61131,-122.67241,3,2,179,2072553,525000,14838,103943,7550,117395,7288,85843
North Hayden Bay Drive,Portland,OR,97217,45.60971,-122.67321,2,2,187,2072553,429000,14838,103943,7550,117395,7288,85843
Tacoma Avenue South,Tacoma,WA,98402,47.24835,-122.44315,1,1,92,215766,385000,3737,70235,909,98985,2828,60800
Northeast 68th Avenue,Vancouver,WA,98661,45.66129,-122.60333,3,2,113,182792,245000,19463,81396,11488,91650,7975,60015
Broadway,Tacoma,WA,98402,47.26441,-122.44585,2,2,101,215766,515500,3737,70235,909,98985,2828,60800
South Yakima Avenue,Tacoma,WA,98405,47.243984,-122.44601,1,1,50,215766,250000,9882,72268,4938,88328,4944,51936
Dock Street,Tacoma,WA,98402,47.246605,-122.4343,1,2,86,215766,400000,3737,70235,909,98985,2828,60800
Pacific Avenue,Tacoma,WA,98418,47.231365,-122.433426,2,2,120,215766,349950,4047,73252,2342,74570,1705,66261
Pacific Avenue,Tacoma,WA,98418,47.231365,-122.433426,2,2,119,215766,385000,4047,73252,2342,74570,1705,66261
None,University Place,WA,98466,47.21428,-122.5666,2,2,79,33661,210000,11924,98706,7552,117085,4372,63397
Northeast 43rd Street,Vancouver,WA,98661,45.65318,-122.60058,2,2,112,182792,229500,19463,81396,11488,91650,7975,60015
Broadway,Tacoma,WA,98402,47.26441,-122.44585,2,2,107,215766,478650,3737,70235,909,98985,2828,60800
Pacific Avenue,Tacoma,WA,98418,47.231365,-122.433426,2,2,119,215766,333000,4047,73252,2342,74570,1705,66261
North D Street,Tacoma,WA,98403,47.268703,-122.452774,2,2,102,215766,485000,4197,83587,1543,132030,2654,54572
Pacific Avenue,Tacoma,WA,98418,47.231365,-122.433426,2,2,119,215766,399000,4047,73252,2342,74570,1705,66261
Tacoma Avenue South,Tacoma,WA,98402,47.24835,-122.44315,2,2,95,215766,399000,3737,70235,909,98985,2828,60800
Pacific Avenue,Tacoma,WA,98418,47.231365,-122.433426,3,2,158,215766,449000,4047,73252,2342,74570,1705,66261
Tacoma Avenue South,Tacoma,WA,98402,47.24835,-122.44315,1,1,56,215766,314990,3737,70235,909,98985,2828,60800
Broadway,Tacoma,WA,98402,47.25995,-122.44229,2,3,169,215766,840000,3737,70235,909,98985,2828,60800
North 30th Street,Tacoma,WA,98403,47.27447,-122.46236,2,2,145,215766,599950,4197,83587,1543,132030,2654,54572
North D Street,Tacoma,WA,98403,47.267754,-122.45178,2,2,111,215766,775000,4197,83587,1543,132030,2654,54572
East 32nd Street,Tacoma,WA,98404,47.232506,-122.42847,1,2,104,215766,359000,12534,69682,8609,72186,3925,54079
East Cliff Avenue,Tacoma,WA,98402,47.252716,-122.43645,1,1,59,215766,329990,3737,70235,909,98985,2828,60800
Court C,Tacoma,WA,98402,47.26221,-122.44478,1,1,52,215766,249999,3737,70235,909,98985,2828,60800
101st Street East,Tacoma,WA,98445,47.16494,-122.41037,3,3,133,215766,395000,11546,81364,8383,88309,3163,52599
Tacoma Avenue South,Tacoma,WA,98402,47.24835,-122.44315,1,1,73,215766,359950,3737,70235,909,98985,2828,60800
Dock Street,Tacoma,WA,98402,47.24877,-122.434166,2,2,132,215766,825000,3737,70235,909,98985,2828,60800
Willow Pointe Loop,Longview,WA,98632,46.163994,-123.02463,2,2,130,98775,345000,20842,70972,12681,87224,8161,40721
River Road,Longview,WA,98632,46.134502,-122.9203,2,3,161,98775,359000,20842,70972,12681,87224,8161,40721
Crescent Drive,Kelso,WA,98626,46.146713,-122.88096,3,2,135,12237,275000,9991,73049,7006,83820,2985,41903
North Jantzen Beach Avenue,Portland,OR,97217,45.610016,-122.67487,2,2,104,2072553,255000,14838,103943,7550,117395,7288,85843
North Hayden Bay Drive,Portland,OR,97217,45.61046,-122.67035,2,2,95,2072553,345777,14838,103943,7550,117395,7288,85843
North Hayden Bay Drive,Portland,OR,97217,45.610573,-122.67011,2,2,95,2072553,350000,14838,103943,7550,117395,7288,85843
North Hayden Bay Drive,Portland,OR,97217,45.61007,-122.66914,1,2,67,2072553,249900,14838,103943,7550,117395,7288,85843
Tibbetts Drive,Longview,WA,98632,46.14585,-122.968315,2,1,80,98775,182500,20842,70972,12681,87224,8161,40721
River Road,Longview,WA,98632,46.134502,-122.9203,2,2,135,98775,280000,20842,70972,12681,87224,8161,40721
North Hayden Island Drive,Portland,OR,97217,45.61131,-122.67241,3,2,192,2072553,549000,14838,103943,7550,117395,7288,85843
North Hayden Bay Drive,Portland,OR,97217,45.610077,-122.669014,1,1,68,2072553,285000,14838,103943,7550,117395,7288,85843
North Hayden Bay Drive,Portland,OR,97217,45.61041,-122.67066,2,2,95,2072553,319000,14838,103943,7550,117395,7288,85843
River Road,Longview,WA,98632,46.137928,-122.919266,2,2,123,98775,285000,20842,70972,12681,87224,8161,40721
River Road,Longview,WA,98632,46.137928,-122.919266,2,2,134,98775,350000,20842,70972,12681,87224,8161,40721
47th Lane Southeast,Olympia,WA,98513,47.003845,-122.79111,3,3,149,200836,365000,13461,102753,10006,109341,3455,70950
Delaware Avenue Southeast,Olympia,WA,98513,46.99049,-122.80258,2,2,99,200836,289000,13461,102753,10006,109341,3455,70950
Illinois Lane Southeast,Olympia,WA,98513,46.990673,-122.80095,3,3,153,200836,319000,13461,102753,10006,109341,3455,70950
Reservation Road Southeast,Olympia,WA,98513,47.0403,-122.69653,1,1,63,200836,209950,13461,102753,10006,109341,3455,70950
Zircon Drive Southwest,Tacoma,WA,98498,47.193542,-122.5515,2,2,86,215766,249500,11400,87719,7004,101640,4396,59174
71st Street Court Southwest,Lakewood,WA,98498,47.19191,-122.554504,3,2,142,155733,499999,11400,87719,7004,101640,4396,59174
Zircon Drive Southwest,Tacoma,WA,98498,47.19389,-122.54913,2,2,85,215766,235000,11400,87719,7004,101640,4396,59174
Zircon Drive Southwest,Tacoma,WA,98498,47.19354,-122.550476,2,2,85,215766,220000,11400,87719,7004,101640,4396,59174
90th Avenue Court Southwest,Lakewood,WA,98498,47.19225,-122.55788,3,2,142,155733,475000,11400,87719,7004,101640,4396,59174
Zircon Drive Southwest,Tacoma,WA,98498,47.193066,-122.55264,2,2,86,215766,268000,11400,87719,7004,101640,4396,59174
Northwest Payne Street,Camas,WA,98607,45.63503,-122.45165,3,3,228,24043,775000,11186,136847,9042,151314,2144,68557
Naval Avenue,Bremerton,WA,98312,47.578,-122.64567,2,2,100,219538,200000,12593,80927,7537,94163,5056,56992
Lebo Boulevard,Bremerton,WA,98310,47.582203,-122.63454,3,2,113,219538,325000,8785,73139,4892,80578,3893,56645
None,Bremerton,WA,98337,47.56445,-122.62444,2,2,123,219538,675000,3513,68122,1623,77688,1890,50382
Northwest 75th Avenue,Camas,WA,98607,45.63363,-122.45151,3,3,231,24043,799000,11186,136847,9042,151314,2144,68557
South 323rd Place,Federal Way,WA,98003,47.31168,-122.3266,1,1,56,96812,210000,18515,76753,10942,89003,7573,53131
South 327th Place,Federal Way,WA,98003,47.308506,-122.33339,2,2,96,96812,350000,18515,76753,10942,89003,7573,53131
None,Federal Way,WA,98003,47.30621,-122.30952,2,1,80,96812,249500,18515,76753,10942,89003,7573,53131
South 323rd Place,Federal Way,WA,98003,47.312054,-122.326965,2,1,78,96812,269999,18515,76753,10942,89003,7573,53131
South 340th Street,Federal Way,WA,98003,47.297848,-122.33272,1,1,62,96812,229950,18515,76753,10942,89003,7573,53131
Southeast Mile Hill Drive,Pt Orchard,WA,98366,47.535126,-122.613884,2,1,80,15979,199900,13838,86217,9347,98428,4491,54643
South 324th Place,Federal Way,WA,98003,47.311115,-122.33334,2,2,97,96812,349500,18515,76753,10942,89003,7573,53131
South 340th Street,Federal Way,WA,98003,47.29718,-122.333435,2,1,87,96812,258950,18515,76753,10942,89003,7573,53131
Washington Beach Avenue,Bremerton,WA,98337,47.56516,-122.62375,2,3,156,219538,724700,3513,68122,1623,77688,1890,50382
10th Avenue Southwest,Federal Way,WA,98023,47.3027,-122.34487,1,1,62,96812,219950,17466,100910,12960,109615,4506,64517
10th Avenue Southwest,Federal Way,WA,98023,47.3027,-122.34487,2,2,84,96812,308000,17466,100910,12960,109615,4506,64517
South 321st Street,Federal Way,WA,98003,47.313915,-122.32695,3,1,94,96812,310000,18515,76753,10942,89003,7573,53131
Washington Avenue,Bremerton,WA,98337,47.56605,-122.62342,1,2,106,219538,458500,3513,68122,1623,77688,1890,50382
East Soderberg Road,Allyn,WA,98524,47.390804,-122.8438,2,2,130,2504,449950,1625,95035,1239,109052,386,46712
East Old Ranch Road,Allyn,WA,98524,47.395996,-122.8363,2,3,185,2504,497500,1625,95035,1239,109052,386,46712
West Freedom Lane,Shelton,WA,98584,47.14457,-123.09642,2,2,140,41162,318500,13761,73690,8977,82451,4784,52010
14th Avenue South,Federal Way,WA,98003,47.32307,-122.31716,1,1,58,96812,219990,18515,76753,10942,89003,7573,53131
South 317th Street,Federal Way,WA,98003,47.31793,-122.30171,2,2,80,96812,299000,18515,76753,10942,89003,7573,53131
14th Avenue South,Federal Way,WA,98003,47.32336,-122.31691,1,1,63,96812,189000,18515,76753,10942,89003,7573,53131
South 336th Street,Federal Way,WA,98003,47.301285,-122.304665,2,2,103,96812,399900,18515,76753,10942,89003,7573,53131
Northeast 76th Street,Camas,WA,98607,45.6772,-122.3603,3,3,209,24043,725000,11186,136847,9042,151314,2144,68557
Northwest 75th Avenue,Camas,WA,98607,45.63369,-122.451385,3,3,231,24043,779000,11186,136847,9042,151314,2144,68557
Northwest Quinault Street,Camas,WA,98607,45.635105,-122.45233,3,3,278,24043,950000,11186,136847,9042,151314,2144,68557
10th Avenue Southwest,Federal Way,WA,98023,47.3027,-122.34487,1,1,63,96812,240000,17466,100910,12960,109615,4506,64517
Southwest 307th Street,Federal Way,WA,98023,47.32668,-122.356415,2,2,97,96812,370000,17466,100910,12960,109615,4506,64517
South 317th Street,Federal Way,WA,98003,47.317932,-122.30227,2,2,80,96812,329988,18515,76753,10942,89003,7573,53131
South 321st Place,Federal Way,WA,98003,47.312527,-122.328514,3,2,91,96812,335000,18515,76753,10942,89003,7573,53131
336th St S & 20th Ave S,Federal Way,WA,98003,47.300777,-122.30632,2,3,86,96812,320000,18515,76753,10942,89003,7573,53131
South 312th Street,Federal Way,WA,98003,47.322556,-122.319916,3,2,114,96812,349995,18515,76753,10942,89003,7573,53131
South 325th Place,Federal Way,WA,98003,47.310394,-122.3285,2,1,72,96812,230000,18515,76753,10942,89003,7573,53131
Northwest Quinault Street,Camas,WA,98607,45.635113,-122.45233,3,3,209,24043,649000,11186,136847,9042,151314,2144,68557
South 340th Street,Federal Way,WA,98003,47.297848,-122.33272,2,1,82,96812,240000,18515,76753,10942,89003,7573,53131
South 330th Street,Federal Way,WA,98003,47.30506,-122.30942,2,2,92,96812,275000,18515,76753,10942,89003,7573,53131
South 330th Street,Federal Way,WA,98003,47.304466,-122.31107,1,1,54,96812,195000,18515,76753,10942,89003,7573,53131
14th Avenue South,Federal Way,WA,98003,47.324097,-122.3162,1,1,62,96812,219990,18515,76753,10942,89003,7573,53131
336th St S & 20th Ave S,Federal Way,WA,98003,47.300777,-122.30632,2,3,85,96812,299950,18515,76753,10942,89003,7573,53131
14th Avenue South,Federal Way,WA,98003,47.324097,-122.3162,1,1,58,96812,199950,18515,76753,10942,89003,7573,53131
3rd Place South,Federal Way,WA,98003,47.310204,-122.33108,3,2,134,96812,299000,18515,76753,10942,89003,7573,53131
None,Federal Way,WA,98003,47.31386,-122.328316,1,1,55,96812,185000,18515,76753,10942,89003,7573,53131
Northwest 76th Avenue,Camas,WA,98607,45.633614,-122.45097,3,3,209,24043,699000,11186,136847,9042,151314,2144,68557
Northwest Quinault Street,Camas,WA,98607,45.635105,-122.45233,3,3,284,24043,899000,11186,136847,9042,151314,2144,68557
South 330th Street,Federal Way,WA,98003,47.304916,-122.31014,1,1,54,96812,177000,18515,76753,10942,89003,7573,53131
19th Avenue Southeast,Puyallup,WA,98372,47.173157,-122.29319,2,2,97,41666,294950,10483,96224,6790,111839,3693,62412
Northwest 77th Avenue,Camas,WA,98607,45.6347,-122.45243,3,3,260,24043,950000,11186,136847,9042,151314,2144,68557
7th Street Southeast,Puyallup,WA,98372,47.18529,-122.27819,3,2,110,41666,399950,10483,96224,6790,111839,3693,62412
Fairwood Boulevard Northeast,Tacoma,WA,98422,47.298763,-122.39347,3,2,144,215766,440000,7905,116313,5812,127779,2093,76635
70th Avenue Northwest,Olympia,WA,98502,47.132748,-122.93288,3,3,258,200836,759000,13914,93287,8515,112429,5399,57416
Peach Court,Pt Angeles,WA,98363,48.129215,-123.49321,1,1,82,20134,249900,5955,70442,3827,80155,2128,45861
Military Road East,Tacoma,WA,98446,47.106533,-122.358925,2,3,157,215766,375000,4116,100046,2645,109417,1471,66786
Military Road East,Tacoma,WA,98446,47.105907,-122.35926,2,3,157,215766,360000,4116,100046,2645,109417,1471,66786
36th Avenue Court East,Tacoma,WA,98446,47.12211,-122.38097,3,3,150,215766,419950,4116,100046,2645,109417,1471,66786
36th Avenue Court East,Tacoma,WA,98446,47.12196,-122.38085,3,3,116,215766,414950,4116,100046,2645,109417,1471,66786
36th Avenue Court East,Tacoma,WA,98446,47.122112,-122.38133,3,3,116,215766,419950,4116,100046,2645,109417,1471,66786
36th Avenue Court East,Tacoma,WA,98446,47.122173,-122.38103,3,3,150,215766,429950,4116,100046,2645,109417,1471,66786
36th Avenue Court East,Tacoma,WA,98446,47.122044,-122.38091,3,3,150,215766,419950,4116,100046,2645,109417,1471,66786
Military Road East,Tacoma,WA,98446,47.106834,-122.35898,2,3,173,215766,399900,4116,100046,2645,109417,1471,66786
East 31st Street,Bremerton,WA,98310,47.592373,-122.63861,2,1,70,219538,225000,8785,73139,4892,80578,3893,56645
Sylvan Pines Circle,Bremerton,WA,98310,47.59602,-122.64361,3,2,110,219538,280000,8785,73139,4892,80578,3893,56645
62nd Avenue Northwest,Gig Harbor,WA,98332,47.37574,-122.62156,2,2,92,10280,375000,7088,152914,5217,176204,1871,84728
Harborcrest Court Northwest,Gig Harbor,WA,98332,47.351906,-122.58758,2,2,104,10280,360000,7088,152914,5217,176204,1871,84728
9th Avenue Southeast,Puyallup,WA,98372,47.183704,-122.2895,2,1,111,41666,419950,10483,96224,6790,111839,3693,62412
Concord Lane Northeast,Bremerton,WA,98311,47.632538,-122.62726,2,2,78,219538,265000,10436,91433,7466,101461,2970,57414
Narrows View Lane Northeast,Bremerton,WA,98310,47.594414,-122.64795,3,2,106,219538,287777,8785,73139,4892,80578,3893,56645
Apaloosa Way Northeast,Bremerton,WA,98310,47.595085,-122.64733,3,3,141,219538,435000,8785,73139,4892,80578,3893,56645
Sylvan Pines Circle,Bremerton,WA,98310,47.596066,-122.6434,3,2,126,219538,270000,8785,73139,4892,80578,3893,56645
Narrows View Lane Northeast,Bremerton,WA,98310,47.593544,-122.64857,2,2,87,219538,279999,8785,73139,4892,80578,3893,56645
Stevens Street,Steilacoom,WA,98388,47.16919,-122.59133,3,2,144,6366,449500,2585,97808,1815,107513,770,63369
58th Avenue,Gig Harbor,WA,98332,47.3699,-122.616394,2,3,257,10280,965000,7088,152914,5217,176204,1871,84728
97th Avenue East,Puyallup,WA,98373,47.136257,-122.299644,2,2,78,41666,305000,9663,101980,6868,113774,2795,67007
Vikings Crest Northeast,Poulsbo,WA,98370,47.74555,-122.64336,2,2,93,10869,280000,13063,104030,8957,122333,4106,59762
Vikings Crest Northeast,Poulsbo,WA,98370,47.74555,-122.64336,3,2,111,10869,305997,13063,104030,8957,122333,4106,59762
97th Avenue East,Puyallup,WA,98373,47.135166,-122.298935,3,2,101,41666,315000,9663,101980,6868,113774,2795,67007
132nd Street Court East,Puyallup,WA,98373,47.13643,-122.296974,3,2,89,41666,349950,9663,101980,6868,113774,2795,67007
97th Avenue East,Puyallup,WA,98373,47.13483,-122.30051,2,2,78,41666,315000,9663,101980,6868,113774,2795,67007
Stratford Lane Southeast,Olympia,WA,98501,47.00375,-122.863495,3,2,137,200836,460000,17697,93545,11072,110860,6625,60659
Yelm Highway Southeast,Olympia,WA,98501,46.999783,-122.85158,2,2,117,200836,249000,17697,93545,11072,110860,6625,60659
Avenue B,Edmonds,WA,98290,47.920116,-122.09578,2,1,71,42347,310000,13592,120834,9976,136611,3616,66943
Ford Avenue,Snohomish,WA,98290,47.92047,-122.08815,2,1,80,10141,289950,13592,120834,9976,136611,3616,66943
Edwards Drive,Point Roberts,WA,98281,48.97509,-123.06077,2,2,100,1100,450000,608,93646,321,138239,287,43770
Edwards Drive,Point Roberts,WA,98281,48.97509,-123.06077,2,2,123,1100,425000,608,93646,321,138239,287,43770
South Laventure Road,Mount Vernon,WA,98274,48.417072,-122.314095,2,2,88,67767,299000,6852,101593,5068,112033,1784,59239
Mallard View Drive,Mount Vernon,WA,98274,48.41212,-122.29955,2,2,130,67767,380000,6852,101593,5068,112033,1784,59239
Woodcock Road,Sequim,WA,98382,48.116234,-123.17379,1,1,49,7441,135500,13487,76451,8582,91890,4905,45849
Front Street,Lynden,WA,98264,48.939205,-122.47956,1,1,50,14700,270000,7847,88732,5482,102434,2365,52883
Fairside Drive,Lynden,WA,98264,48.940296,-122.4744,2,1,77,14700,319000,7847,88732,5482,102434,2365,52883
West Sunn Fjord Lane,Bremerton,WA,98312,47.54793,-122.675156,2,2,91,219538,235000,12593,80927,7537,94163,5056,56992
Homestead Boulevard,Lynden,WA,98264,48.960175,-122.45293,3,2,111,14700,390000,7847,88732,5482,102434,2365,52883
Homestead Boulevard,Lynden,WA,98264,48.960175,-122.45293,2,2,115,14700,365000,7847,88732,5482,102434,2365,52883
30th Street Northwest,Gig Harbor,WA,98335,47.286945,-122.55039,3,4,278,10280,949000,10604,139032,7555,161716,3049,82097
Spadoni Lane,Gig Harbor,WA,98335,47.32701,-122.591125,2,3,166,10280,525000,10604,139032,7555,161716,3049,82097
59th Stct Northwest,Gig Harbor,WA,98335,47.3124,-122.576904,2,1,76,10280,325000,10604,139032,7555,161716,3049,82097
59th Stct Northwest,Gig Harbor,WA,98335,47.312405,-122.57672,2,1,76,10280,325000,10604,139032,7555,161716,3049,82097
Narrows View Circle Northwest,Gig Harbor,WA,98335,47.27546,-122.55639,3,2,212,10280,759500,10604,139032,7555,161716,3049,82097
130th Lane Southeast,Snohomish,WA,98296,47.878662,-122.166016,3,3,146,10141,760000,10043,157711,8243,165734,1800,107125
Bobs Hollow Lane,Dupont,WA,98327,47.097874,-122.65349,2,2,100,9514,354900,3906,113773,2520,128652,1386,84850
Kennedy Place,Dupont,WA,98327,47.09662,-122.64306,2,1,94,9514,349900,3906,113773,2520,128652,1386,84850
134th Pl SE & Snohomish Cascade Dr,Snohomish,WA,98296,47.87357,-122.14471,2,2,101,10141,475000,10043,157711,8243,165734,1800,107125
67th Avenue Southeast,Snohomish,WA,98296,47.87548,-122.142296,3,3,148,10141,675000,10043,157711,8243,165734,1800,107125
69th Drive Southeast,Snohomish,WA,98296,47.86962,-122.13798,1,1,70,10141,349950,10043,157711,8243,165734,1800,107125
Bender Park Boulevard,Lynden,WA,98264,48.961346,-122.434326,3,3,141,14700,439000,7847,88732,5482,102434,2365,52883
East Grover Street,Lynden,WA,98264,48.949913,-122.430374,3,3,175,14700,490000,7847,88732,5482,102434,2365,52883
Shelter Bay Drive,La Conner,WA,98257,48.38271,-122.51644,3,2,203,974,499999,2020,91746,1238,111288,782,57738
265th Street Northwest,Stanwood,WA,98292,48.23654,-122.32784,2,2,114,7228,415000,8642,109898,6010,128479,2632,62495
Scott Road,Freeland,WA,98249,48.010387,-122.517296,5,3,265,6866,899000,2244,108916,1249,147969,995,58747
Firwood Lane,Mount Vernon,WA,98273,48.445633,-122.305405,2,2,105,67767,329000,11548,77020,7679,88051,3869,49767
North 8th Street,Mount Vernon,WA,98273,48.431236,-122.33089,2,1,87,67767,295000,11548,77020,7679,88051,3869,49767
North Laventure Road,Mount Vernon,WA,98273,48.439007,-122.314926,2,2,124,67767,325000,11548,77020,7679,88051,3869,49767
Shady Lane,Mount Vernon,WA,98273,48.425037,-122.31175,2,2,123,67767,449000,11548,77020,7679,88051,3869,49767
168th Place Northeast,Marysville,WA,98271,48.148624,-122.196106,3,2,97,162700,485000,10598,101613,7662,109567,2936,72964
169th Street Northeast,Marysville,WA,98271,48.14924,-122.19429,3,2,97,162700,479000,10598,101613,7662,109567,2936,72964
Redwood Avenue,Bellingham,WA,98225,48.77777,-122.52389,2,2,87,129653,290000,21812,69554,8226,105181,13586,46370
13th Street,Bellingham,WA,98225,48.7207,-122.500656,2,2,111,129653,649000,21812,69554,8226,105181,13586,46370
South State Street,Bellingham,WA,98225,48.73272,-122.49846,2,3,166,129653,749000,21812,69554,8226,105181,13586,46370
Bancroft Street,Bellingham,WA,98225,48.756226,-122.48651,2,2,88,129653,450000,21812,69554,8226,105181,13586,46370
Granary Avenue,Bellingham,WA,98225,48.750275,-122.485565,1,2,77,129653,575000,21812,69554,8226,105181,13586,46370
Billy Frank Jr. Street,Bellingham,WA,98225,48.7433,-122.47595,2,1,70,129653,295000,21812,69554,8226,105181,13586,46370
Boulevard,Bellingham,WA,98225,48.742695,-122.48702,1,1,72,129653,525000,21812,69554,8226,105181,13586,46370
Old Fairhaven Parkway,Bellingham,WA,98225,48.717056,-122.5014,2,2,105,129653,675000,21812,69554,8226,105181,13586,46370
Granary Avenue,Bellingham,WA,98225,48.750275,-122.485565,1,1,76,129653,515000,21812,69554,8226,105181,13586,46370
North State Street,Bellingham,WA,98225,48.74571,-122.4817,2,1,66,129653,365000,21812,69554,8226,105181,13586,46370
South State Street,Bellingham,WA,98225,48.73173,-122.50086,1,1,76,129653,345000,21812,69554,8226,105181,13586,46370
Harbour Pointe Boulevard,Mukilteo,WA,98275,47.89526,-122.30667,3,2,114,21414,495000,8270,135237,5839,154982,2431,77785
81st Place Southwest,Mukilteo,WA,98275,47.924473,-122.30264,2,2,112,21414,349950,8270,135237,5839,154982,2431,77785
Harbour Pointe Boulevard,Mukilteo,WA,98275,47.88712,-122.3059,2,1,81,21414,428888,8270,135237,5839,154982,2431,77785
53rd Avenue West,Mukilteo,WA,98275,47.92417,-122.307976,2,2,133,21414,749950,8270,135237,5839,154982,2431,77785
Harbour Pointe Boulevard,Mukilteo,WA,98275,47.88712,-122.3059,2,2,78,21414,399990,8270,135237,5839,154982,2431,77785
West Thorne Lane Southwest,Lakewood,WA,98498,47.1261,-122.55724,2,2,80,155733,239950,11400,87719,7004,101640,4396,59174
76th Street Southwest,Mukilteo,WA,98275,47.930332,-122.29928,1,1,60,21414,249950,8270,135237,5839,154982,2431,77785
Possession Way,Mukilteo,WA,98275,47.88852,-122.30005,2,3,112,21414,579999,8270,135237,5839,154982,2431,77785
Harbour Pointe Boulevard,Mukilteo,WA,98275,47.896408,-122.30498,1,1,55,21414,275000,8270,135237,5839,154982,2431,77785
Harbour Pointe Boulevard,Mukilteo,WA,98275,47.89526,-122.30667,3,2,114,21414,499000,8270,135237,5839,154982,2431,77785
53rd Avenue West,Mukilteo,WA,98275,47.92327,-122.306725,3,2,154,21414,595000,8270,135237,5839,154982,2431,77785
53rd Avenue West,Mukilteo,WA,98275,47.92327,-122.306725,3,2,135,21414,669500,8270,135237,5839,154982,2431,77785
84th Street Southwest,Mukilteo,WA,98275,47.922478,-122.30361,1,1,57,21414,235000,8270,135237,5839,154982,2431,77785
53rd Avenue West,Mukilteo,WA,98275,47.92327,-122.306725,2,2,104,21414,680000,8270,135237,5839,154982,2431,77785
Waller Road East,Tacoma,WA,98443,47.223095,-122.38466,4,3,222,215766,648000,2124,109301,1469,127639,655,62478
34th Street East,Fife,WA,98424,47.226574,-122.3579,2,2,99,10345,424950,4221,89058,2701,99757,1520,62706
20th Street East,Tacoma,WA,98424,47.23788,-122.33783,3,2,126,215766,395000,4221,89058,2701,99757,1520,62706
11th Street Northeast,Lake Stevens,WA,98258,48.00608,-122.104546,4,3,173,33470,625000,11405,107772,9014,115419,2391,68609
88th Drive Northeast,Lake Stevens,WA,98258,48.020294,-122.11151,4,3,210,33470,750000,11405,107772,9014,115419,2391,68609
81st Avenue Northeast,Lake Stevens,WA,98258,48.011417,-122.12145,3,2,160,33470,585000,11405,107772,9014,115419,2391,68609
None,Ferndale,WA,98248,48.847446,-122.59957,2,2,80,20139,410000,9405,87173,7239,96975,2166,50185
Northwest Avenue,Bellingham,WA,98225,48.781956,-122.50075,1,1,60,129653,239900,21812,69554,8226,105181,13586,46370
Railroad Avenue,Bellingham,WA,98225,48.74666,-122.48228,1,1,64,129653,425000,21812,69554,8226,105181,13586,46370
Old Fairhaven Parkway,Bellingham,WA,98225,48.71739,-122.5007,3,2,160,129653,979900,21812,69554,8226,105181,13586,46370
10th Street,Bellingham,WA,98225,48.719746,-122.50512,1,1,51,129653,405000,21812,69554,8226,105181,13586,46370
High Street,Bellingham,WA,98225,48.74338,-122.47787,2,2,86,129653,495000,21812,69554,8226,105181,13586,46370
Redwood Avenue,Bellingham,WA,98225,48.77814,-122.52243,2,2,90,129653,275000,21812,69554,8226,105181,13586,46370
20th Street,Bellingham,WA,98225,48.725727,-122.4921,2,1,63,129653,300000,21812,69554,8226,105181,13586,46370
Harris Avenue,Bellingham,WA,98225,48.719887,-122.50141,1,1,51,129653,395000,21812,69554,8226,105181,13586,46370
North State Street,Bellingham,WA,98225,48.74571,-122.4817,2,1,77,129653,365000,21812,69554,8226,105181,13586,46370
4th Street Northeast,Lake Stevens,WA,98258,47.99804,-122.11828,3,3,115,33470,499900,11405,107772,9014,115419,2391,68609
Soper Hill Road,Lake Stevens,WA,98258,48.017155,-122.11445,3,3,162,33470,575000,11405,107772,9014,115419,2391,68609
128th Drive Northeast,Lake Stevens,WA,98258,48.010334,-122.05858,2,1,90,33470,365000,11405,107772,9014,115419,2391,68609
Skyview Lane North,Tacoma,WA,98406,47.257717,-122.53414,2,2,106,215766,305000,10004,102646,5379,139139,4625,57160
West Laurel Street,Bellingham,WA,98225,48.74951,-122.48652,1,2,77,129653,575000,21812,69554,8226,105181,13586,46370
North 15th Street,Tacoma,WA,98406,47.26379,-122.51726,2,2,90,215766,299950,10004,102646,5379,139139,4625,57160
North Visscher Street,Tacoma,WA,98406,47.264347,-122.51637,2,1,79,215766,285000,10004,102646,5379,139139,4625,57160
North 15th Street,Tacoma,WA,98406,47.264023,-122.51859,2,1,79,215766,278000,10004,102646,5379,139139,4625,57160
18th Place Southeast,Lake Stevens,WA,98258,47.979275,-122.087776,3,3,177,33470,589950,11405,107772,9014,115419,2391,68609
27th Drive Southeast,Everett,WA,98208,47.878815,-122.19535,3,3,160,110840,849995,21072,103537,15140,112912,5932,70581
27th Drive Southeast,Everett,WA,98208,47.878754,-122.19536,3,3,187,110840,909995,21072,103537,15140,112912,5932,70581
96th Avenue Northeast,Lake Stevens,WA,98258,48.002457,-122.10239,2,2,98,33470,349950,11405,107772,9014,115419,2391,68609
Grade Road,Lake Stevens,WA,98258,48.01782,-122.06381,3,2,103,33470,320000,11405,107772,9014,115419,2391,68609
27th Drive Southeast,Everett,WA,98208,47.87858,-122.195366,4,3,171,110840,899995,21072,103537,15140,112912,5932,70581
26th Avenue East,Tacoma,WA,98445,47.09649,-122.39513,4,3,153,215766,360000,11546,81364,8383,88309,3163,52599
26th Avenue East,Tacoma,WA,98445,47.096043,-122.395226,3,3,132,215766,369950,11546,81364,8383,88309,3163,52599
26th Avenue Court East,Tacoma,WA,98445,47.095943,-122.394905,3,3,127,215766,349950,11546,81364,8383,88309,3163,52599
Racine Street,Bellingham,WA,98226,48.769047,-122.452576,3,2,124,129653,500000,18733,84017,11904,96405,6829,56280
Nevada Street,Bellingham,WA,98229,48.744167,-122.46026,1,1,51,129653,224950,13265,94968,8640,114908,4625,54606
Newmarket Street,Bellingham,WA,98226,48.771935,-122.44392,1,2,71,129653,429000,18733,84017,11904,96405,6829,56280
Southbend Place,Bellingham,WA,98226,48.775784,-122.4491,2,1,70,129653,295000,18733,84017,11904,96405,6829,56280
East Maryland Street,Bellingham,WA,98226,48.766476,-122.449974,3,3,112,129653,489900,18733,84017,11904,96405,6829,56280
Main Street,Tacoma,WA,98407,47.298244,-122.50405,2,2,97,215766,679900,9533,113185,5853,131542,3680,80157
Main Street,Tacoma,WA,98407,47.296314,-122.49997,3,2,141,215766,963942,9533,113185,5853,131542,3680,80157
Main Street,Tacoma,WA,98407,47.296314,-122.49997,2,2,125,215766,665324,9533,113185,5853,131542,3680,80157
Main Street,Tacoma,WA,98407,47.29629,-122.50049,2,2,125,215766,667828,9533,113185,5853,131542,3680,80157
Main Street,Tacoma,WA,98407,47.29629,-122.50049,2,2,125,215766,703811,9533,113185,5853,131542,3680,80157
Main Street,Tacoma,WA,98407,47.29629,-122.50049,2,2,125,215766,691667,9533,113185,5853,131542,3680,80157
Main Street,Tacoma,WA,98407,47.29629,-122.50049,2,2,125,215766,665324,9533,113185,5853,131542,3680,80157
Main Street,Tacoma,WA,98407,47.29629,-122.50049,2,2,125,215766,667000,9533,113185,5853,131542,3680,80157
Main Street,Tacoma,WA,98407,47.29629,-122.50049,2,2,125,215766,690854,9533,113185,5853,131542,3680,80157
Main Street,Tacoma,WA,98407,47.29629,-122.50049,3,2,150,215766,963942,9533,113185,5853,131542,3680,80157
Cady Road,Everett,WA,98203,47.933094,-122.22251,3,2,107,110840,399990,13844,94711,8739,104912,5105,70487
Main Street,Tacoma,WA,98407,47.296314,-122.49997,1,2,121,215766,925028,9533,113185,5853,131542,3680,80157
Main Street,Tacoma,WA,98407,47.296314,-122.49997,2,2,127,215766,920503,9533,113185,5853,131542,3680,80157
Cady Road,Everett,WA,98203,47.933094,-122.22251,2,2,89,110840,349995,13844,94711,8739,104912,5105,70487
Main Street,Tacoma,WA,98407,47.296314,-122.49997,2,2,141,215766,932000,9533,113185,5853,131542,3680,80157
132nd Street Southeast,Everett,WA,98208,47.87897,-122.186584,2,2,92,110840,399000,21072,103537,15140,112912,5932,70581
Main Street,Tacoma,WA,98407,47.296314,-122.49997,2,2,129,215766,895000,9533,113185,5853,131542,3680,80157
Canvasback Road,Blaine,WA,98230,48.966335,-122.78335,3,4,230,65048,599000,7506,87044,5070,99288,2436,57184
125th Place Southeast,Everett,WA,98208,47.88437,-122.22547,3,3,165,110840,650000,21072,103537,15140,112912,5932,70581
Main Street,Tacoma,WA,98407,47.296314,-122.49997,2,2,141,215766,892607,9533,113185,5853,131542,3680,80157
Highway Place,Everett,WA,98203,47.944473,-122.214386,2,2,93,110840,319000,13844,94711,8739,104912,5105,70487
131st Place Southeast,Everett,WA,98208,47.878456,-122.198006,4,3,168,110840,799000,21072,103537,15140,112912,5932,70581
White Point Road,Friday Harbor,WA,98250,48.60633,-123.15658,2,2,83,2406,795000,4001,111419,2482,137948,1519,62816
Guard Street,Friday Harbor,WA,98250,48.536507,-123.02499,2,2,91,2406,469000,4001,111419,2482,137948,1519,62816
Fidalgo Drive,Burlington,WA,98233,48.464066,-122.32203,2,2,148,137096,439500,6284,83464,4202,90045,2082,65119
Decatur Circle,Burlington,WA,98233,48.46099,-122.31986,2,2,151,137096,440000,6284,83464,4202,90045,2082,65119
Cypress Court,Burlington,WA,98233,48.463104,-122.32068,3,3,189,137096,459000,6284,83464,4202,90045,2082,65119
Darby Drive,Bellingham,WA,98226,48.792885,-122.498924,2,2,124,129653,430000,18733,84017,11904,96405,6829,56280
Northwind Circle,Bellingham,WA,98226,48.798313,-122.500084,2,2,108,129653,479000,18733,84017,11904,96405,6829,56280
Main Street,Tacoma,WA,98407,47.296314,-122.49997,2,2,120,215766,706183,9533,113185,5853,131542,3680,80157
Main Street,Tacoma,WA,98407,47.296314,-122.49997,2,2,143,215766,993170,9533,113185,5853,131542,3680,80157
West Horton Way,Bellingham,WA,98226,48.803993,-122.500145,2,2,85,129653,345000,18733,84017,11904,96405,6829,56280
East Village Lane,Bellingham,WA,98226,48.794876,-122.50034,2,2,106,129653,460000,18733,84017,11904,96405,6829,56280
Main Street,Tacoma,WA,98407,47.298244,-122.50405,2,2,124,215766,699995,9533,113185,5853,131542,3680,80157
West Horton Way,Bellingham,WA,98226,48.803608,-122.500725,2,2,85,129653,349900,18733,84017,11904,96405,6829,56280
Wintergreen Circle,Bellingham,WA,98226,48.802227,-122.501,1,1,58,129653,220000,18733,84017,11904,96405,6829,56280
Hilltop Drive,Sequim,WA,98382,48.11194,-123.10164,3,3,166,7441,385000,13487,76451,8582,91890,4905,45849
Cady Road,Everett,WA,98203,47.933094,-122.22251,2,2,89,110840,319950,13844,94711,8739,104912,5105,70487
Fairway Drive,Sequim,WA,98382,48.109467,-123.094826,2,2,110,7441,385000,13487,76451,8582,91890,4905,45849
West Evergreen Farm Way,Sequim,WA,98382,48.09291,-123.11398,2,2,124,7441,389950,13487,76451,8582,91890,4905,45849
Trowbridge Court,Sequim,WA,98382,48.09809,-123.104744,2,2,107,7441,340000,13487,76451,8582,91890,4905,45849
Lower Ridge Road,Everett,WA,98203,47.935543,-122.23337,2,2,122,110840,470000,13844,94711,8739,104912,5105,70487
Cady Road,Everett,WA,98203,47.933094,-122.22251,3,2,108,110840,284000,13844,94711,8739,104912,5105,70487
18th Avenue,Seattle,WA,98122,47.61727,-122.3092,2,2,85,3530752,644995,21237,120396,6180,172211,15057,96875
Queen Anne Avenue North,Seattle,WA,98109,47.632004,-122.35699,3,2,111,3530752,750000,18617,138804,4772,218808,13845,109552
1st Avenue,Seattle,WA,98121,47.61616,-122.35152,1,1,60,3530752,524000,13511,141701,4104,215871,9407,109324
Western Avenue,Seattle,WA,98121,47.614765,-122.3513,1,1,62,3530752,465000,13511,141701,4104,215871,9407,109324
Belmont Avenue East,Seattle,WA,98102,47.621494,-122.32369,1,1,72,3530752,515000,16219,131801,4086,214954,12133,102802
23rd Avenue South,Seattle,WA,98144,47.598267,-122.30255,2,2,88,3530752,525000,14263,135912,7646,171006,6617,89901
18th Avenue South,Seattle,WA,98144,47.58899,-122.309814,3,3,129,3530752,535000,14263,135912,7646,171006,6617,89901
Harrison Street,Seattle,WA,98109,47.622177,-122.340355,1,1,62,3530752,499000,18617,138804,4772,218808,13845,109552
1st Avenue,Seattle,WA,98121,47.617226,-122.35362,2,2,103,3530752,749000,13511,141701,4104,215871,9407,109324
Denny Way,Seattle,WA,98121,47.618366,-122.35363,2,2,94,3530752,700000,13511,141701,4104,215871,9407,109324
2nd Avenue,Seattle,WA,98121,47.61767,-122.352394,1,1,78,3530752,599880,13511,141701,4104,215871,9407,109324
Melrose Avenue East,Seattle,WA,98102,47.62231,-122.32751,1,2,104,3530752,625000,16219,131801,4086,214954,12133,102802
1st Avenue West,Seattle,WA,98119,47.619278,-122.35768,1,1,68,3530752,465000,13762,148337,5265,230864,8497,94895
13th Avenue,Seattle,WA,98122,47.612667,-122.31518,1,1,59,3530752,375000,21237,120396,6180,172211,15057,96875
Broadway East,Seattle,WA,98102,47.62399,-122.32042,2,3,141,3530752,975000,16219,131801,4086,214954,12133,102802
16th Avenue East,Seattle,WA,98112,47.621185,-122.31176,1,1,61,3530752,389900,11846,216581,5998,299387,5848,127309
17th Avenue East,Seattle,WA,98112,47.61986,-122.309685,1,1,70,3530752,439000,11846,216581,5998,299387,5848,127309
Wall Street,Seattle,WA,98121,47.614002,-122.34903,1,1,51,3530752,388000,13511,141701,4104,215871,9407,109324
South Atlantic Street,Seattle,WA,98134,47.590363,-122.31815,2,2,99,3530752,465000,215,93611,28,113386,187,90650
1st Avenue,Seattle,WA,98104,47.60505,-122.336105,1,2,81,3530752,689000,8637,90725,2076,129885,6561,77996
5th Avenue,Seattle,WA,98121,47.61753,-122.346245,1,2,51,3530752,457000,13511,141701,4104,215871,9407,109324
Belmont Place East,Seattle,WA,98102,47.625896,-122.32389,2,1,80,3530752,699950,16219,131801,4086,214954,12133,102802
Ward Street,Seattle,WA,98109,47.628365,-122.35591,2,1,70,3530752,599000,18617,138804,4772,218808,13845,109552
Broadway East,Seattle,WA,98102,47.62399,-122.32042,2,2,101,3530752,825000,16219,131801,4086,214954,12133,102802
Hubbell Place,Seattle,WA,98101,47.61215,-122.32971,1,1,56,3530752,350000,9870,124205,1990,204436,7880,103943
Terry Avenue,Seattle,WA,98121,47.617264,-122.335846,1,2,85,3530752,635000,13511,141701,4104,215871,9407,109324
Virginia Street,Seattle,WA,98101,47.61605,-122.33571,1,1,69,3530752,589000,9870,124205,1990,204436,7880,103943
6th Avenue,Seattle,WA,98121,47.61834,-122.34448,1,1,64,3530752,603000,13511,141701,4104,215871,9407,109324
Cedar Street,Seattle,WA,98121,47.615604,-122.35169,2,2,116,3530752,789000,13511,141701,4104,215871,9407,109324
6th Avenue,Seattle,WA,98121,47.618286,-122.34464,1,1,92,3530752,808000,13511,141701,4104,215871,9407,109324
6th Avenue,Seattle,WA,98121,47.61834,-122.344505,1,1,71,3530752,660000,13511,141701,4104,215871,9407,109324
East Republican Street,Seattle,WA,98102,47.623276,-122.32755,1,1,62,3530752,350000,16219,131801,4086,214954,12133,102802
18th Avenue,Seattle,WA,98122,47.617275,-122.30917,2,2,80,3530752,574995,21237,120396,6180,172211,15057,96875
18th Avenue,Seattle,WA,98122,47.61727,-122.30921,2,2,85,3530752,634995,21237,120396,6180,172211,15057,96875
Queen Anne Avenue North,Seattle,WA,98109,47.62601,-122.35632,1,1,53,3530752,450000,18617,138804,4772,218808,13845,109552
Boylston Avenue,Seattle,WA,98101,47.612473,-122.32296,1,1,56,3530752,274950,9870,124205,1990,204436,7880,103943
East Pike Street,Seattle,WA,98122,47.613903,-122.327194,1,1,70,3530752,525000,21237,120396,6180,172211,15057,96875
East Thomas Street,Seattle,WA,98102,47.621,-122.32451,1,1,65,3530752,420000,16219,131801,4086,214954,12133,102802
Western Avenue,Seattle,WA,98121,47.611183,-122.34416,1,2,86,3530752,625000,13511,141701,4104,215871,9407,109324
Virginia Street,Seattle,WA,98101,47.61605,-122.33571,1,1,90,3530752,725000,9870,124205,1990,204436,7880,103943
East Republican Street,Seattle,WA,98102,47.622864,-122.315384,1,1,58,3530752,395000,16219,131801,4086,214954,12133,102802
8th Avenue,Seattle,WA,98101,47.609287,-122.329254,2,2,98,3530752,650000,9870,124205,1990,204436,7880,103943
1st Avenue,Seattle,WA,98121,47.614437,-122.34803,1,1,54,3530752,449950,13511,141701,4104,215871,9407,109324
Bell Street,Seattle,WA,98121,47.612595,-122.34773,1,1,69,3530752,749000,13511,141701,4104,215871,9407,109324
University Street,Seattle,WA,98101,47.61273,-122.324814,1,1,58,3530752,379999,9870,124205,1990,204436,7880,103943
Taylor Avenue North,Seattle,WA,98109,47.63165,-122.345856,2,2,98,3530752,715000,18617,138804,4772,218808,13845,109552
Queen Anne Avenue North,Seattle,WA,98109,47.62161,-122.35711,1,1,70,3530752,465000,18617,138804,4772,218808,13845,109552
East Denny Way,Seattle,WA,98122,47.618446,-122.32305,1,1,66,3530752,499900,21237,120396,6180,172211,15057,96875
Terry Avenue,Seattle,WA,98101,47.61263,-122.32924,1,1,58,3530752,419000,9870,124205,1990,204436,7880,103943
4th Avenue,Seattle,WA,98101,47.612988,-122.3393,1,2,85,3530752,750000,9870,124205,1990,204436,7880,103943
17th Avenue,Seattle,WA,98122,47.612232,-122.30994,1,1,64,3530752,509950,21237,120396,6180,172211,15057,96875
6th Avenue,Seattle,WA,98121,47.61834,-122.344505,1,1,49,3530752,538000,13511,141701,4104,215871,9407,109324
South Main Street,Seattle,WA,98104,47.60029,-122.32804,1,1,52,3530752,444950,8637,90725,2076,129885,6561,77996
Queen Anne Avenue North,Seattle,WA,98109,47.62161,-122.35711,1,1,69,3530752,500000,18617,138804,4772,218808,13845,109552
Boren Avenue,Seattle,WA,98101,47.61212,-122.328125,1,1,51,3530752,398000,9870,124205,1990,204436,7880,103943
Western Avenue,Seattle,WA,98121,47.617825,-122.35546,1,1,55,3530752,429900,13511,141701,4104,215871,9407,109324
2nd Avenue,Seattle,WA,98121,47.61644,-122.349495,1,1,65,3530752,425000,13511,141701,4104,215871,9407,109324
Terry Avenue,Seattle,WA,98121,47.617264,-122.335846,1,1,60,3530752,435000,13511,141701,4104,215871,9407,109324
Virginia Street,Seattle,WA,98101,47.61622,-122.335724,2,2,122,3530752,949000,9870,124205,1990,204436,7880,103943
Stewart Street,Seattle,WA,98101,47.610706,-122.34062,1,1,73,3530752,634000,9870,124205,1990,204436,7880,103943
Taylor Avenue North,Seattle,WA,98109,47.63338,-122.34639,2,2,82,3530752,529950,18617,138804,4772,218808,13845,109552
Alaskan Way,Seattle,WA,98101,47.609573,-122.34472,1,1,77,3530752,580000,9870,124205,1990,204436,7880,103943
Melrose Avenue,Seattle,WA,98122,47.61737,-122.327545,2,1,76,3530752,575000,21237,120396,6180,172211,15057,96875
South Main Street,Seattle,WA,98104,47.60029,-122.32804,1,1,49,3530752,499950,8637,90725,2076,129885,6561,77996
Bell Street,Seattle,WA,98121,47.61675,-122.34329,1,1,74,3530752,770000,13511,141701,4104,215871,9407,109324
Summit Avenue,Seattle,WA,98122,47.615845,-122.3259,2,2,98,3530752,649000,21237,120396,6180,172211,15057,96875
1st Avenue,Seattle,WA,98121,47.616413,-122.352295,1,1,67,3530752,509000,13511,141701,4104,215871,9407,109324
Hayes Street,Seattle,WA,98109,47.63376,-122.341446,2,2,70,3530752,536000,18617,138804,4772,218808,13845,109552
Virginia Street,Seattle,WA,98101,47.61605,-122.33571,1,2,103,3530752,735000,9870,124205,1990,204436,7880,103943
6th Avenue,Seattle,WA,98121,47.618286,-122.34464,1,1,52,3530752,757000,13511,141701,4104,215871,9407,109324
Broadway East,Seattle,WA,98102,47.62399,-122.32042,1,2,76,3530752,535000,16219,131801,4086,214954,12133,102802
Aurora Avenue North,Seattle,WA,98109,47.63273,-122.343124,1,1,59,3530752,420000,18617,138804,4772,218808,13845,109552
Western Avenue,Seattle,WA,98121,47.6155,-122.35235,1,1,71,3530752,649000,13511,141701,4104,215871,9407,109324
25th Avenue,Seattle,WA,98122,47.618717,-122.299576,1,1,58,3530752,500000,21237,120396,6180,172211,15057,96875
14th Avenue,Seattle,WA,98122,47.61562,-122.31356,1,1,74,3530752,550000,21237,120396,6180,172211,15057,96875
27th Drive Southeast,Everett,WA,98208,47.87888,-122.19542,4,3,171,110840,839995,21072,103537,15140,112912,5932,70581
27th Drive Southeast,Everett,WA,98208,47.87888,-122.19542,4,3,171,110840,844995,21072,103537,15140,112912,5932,70581
Main Street,Tacoma,WA,98407,47.296623,-122.49989,2,2,125,215766,690011,9533,113185,5853,131542,3680,80157
Main Street,Tacoma,WA,98407,47.296623,-122.49989,2,2,141,215766,918099,9533,113185,5853,131542,3680,80157
Main Street,Tacoma,WA,98407,47.296623,-122.49989,2,2,125,215766,667991,9533,113185,5853,131542,3680,80157
Main Street,Tacoma,WA,98407,47.29629,-122.50049,2,2,125,215766,690164,9533,113185,5853,131542,3680,80157
8th Avenue,Seattle,WA,98101,47.61356,-122.33405,1,1,75,3530752,785000,9870,124205,1990,204436,7880,103943
Sylvan Street,Bellingham,WA,98226,48.768986,-122.4223,2,2,100,129653,425000,18733,84017,11904,96405,6829,56280
1st Avenue,Seattle,WA,98121,47.616413,-122.352295,2,2,84,3530752,825000,13511,141701,4104,215871,9407,109324
4th Avenue West,Seattle,WA,98119,47.625175,-122.362305,2,2,109,3530752,620000,13762,148337,5265,230864,8497,94895
Wintergreen Circle,Bellingham,WA,98226,48.802227,-122.501,2,1,68,129653,300000,18733,84017,11904,96405,6829,56280
John Street,Seattle,WA,98109,47.6193,-122.34412,1,1,51,3530752,449000,18617,138804,4772,218808,13845,109552
Wade Street,Bellingham,WA,98226,48.811214,-122.49394,2,2,115,129653,409000,18733,84017,11904,96405,6829,56280
Main Street,Tacoma,WA,98407,47.296623,-122.49989,2,2,120,215766,641067,9533,113185,5853,131542,3680,80157
1st Avenue South,Seattle,WA,98104,47.597565,-122.33369,1,1,96,3530752,680000,8637,90725,2076,129885,6561,77996
5th Avenue West,Seattle,WA,98119,47.623554,-122.36287,2,2,90,3530752,740000,13762,148337,5265,230864,8497,94895
Main Street,Tacoma,WA,98407,47.29629,-122.50049,3,2,150,215766,967583,9533,113185,5853,131542,3680,80157
6th Avenue,Seattle,WA,98121,47.618313,-122.34448,1,1,64,3530752,683000,13511,141701,4104,215871,9407,109324
Virginia Street,Seattle,WA,98101,47.61605,-122.33571,2,2,110,3530752,879500,9870,124205,1990,204436,7880,103943
112th Street Southeast,Everett,WA,98208,47.8971,-122.21815,3,2,96,110840,319950,21072,103537,15140,112912,5932,70581
Main Street,Tacoma,WA,98407,47.29629,-122.50049,2,2,141,215766,892607,9533,113185,5853,131542,3680,80157
5th Avenue West,Seattle,WA,98119,47.623554,-122.36287,1,1,60,3530752,515000,13762,148337,5265,230864,8497,94895
128th Street Southeast,Everett,WA,98208,47.882507,-122.227165,1,1,55,110840,248000,21072,103537,15140,112912,5932,70581
Wintergreen Circle,Bellingham,WA,98226,48.802227,-122.501,2,2,76,129653,325000,18733,84017,11904,96405,6829,56280
Melrose Avenue,Seattle,WA,98122,47.61813,-122.32754,2,2,112,3530752,625000,21237,120396,6180,172211,15057,96875
