address,city,state,postcode,latitude,longitude,bedroom_number,bathroom_number,square_meter,price,household_number,household_mean_income,families_number,family_mean_income,non_family_number,non_family_mean_income,population,20to24,25to34,35to44,45to54,55to59,60to64,65to74,75to84,median_age
Vista Drive,Juneau,AK,99801,58.2858,-134.41408,3,2,123,450000,11850,105707,7006,124819,4844,72531,29976,1681,4683,4104,3999,2243,2039,2886,1017,38.7
David Street,Juneau,AK,99801,58.286762,-134.41832,1,1,70,220000,11850,105707,7006,124819,4844,72531,29976,1681,4683,4104,3999,2243,2039,2886,1017,38.7
Riverside Drive,Juneau,AK,99801,58.397495,-134.5834,2,2,113,329900,11850,105707,7006,124819,4844,72531,29976,1681,4683,4104,3999,2243,2039,2886,1017,38.7
John Street,Juneau,AK,99801,58.288048,-134.42033,2,2,108,229000,11850,105707,7006,124819,4844,72531,29976,1681,4683,4104,3999,2243,2039,2886,1017,38.7
Glacier Highway,Juneau,AK,99801,58.384464,-134.65596,2,2,72,279900,11850,105707,7006,124819,4844,72531,29976,1681,4683,4104,3999,2243,2039,2886,1017,38.7
Mendenhall Loop Road and Cinema Drive,Juneau,AK,99801,58.38088,-134.57686,2,2,94,205000,11850,105707,7006,124819,4844,72531,29976,1681,4683,4104,3999,2243,2039,2886,1017,38.7
Cinema Drive,Juneau,AK,99801,58.38113,-134.58157,2,2,111,320000,11850,105707,7006,124819,4844,72531,29976,1681,4683,4104,3999,2243,2039,2886,1017,38.7
Sunset Drive,Juneau,AK,99801,58.369877,-134.5924,3,3,140,460000,11850,105707,7006,124819,4844,72531,29976,1681,4683,4104,3999,2243,2039,2886,1017,38.7
3rd Street,Juneau,AK,99801,58.29315,-134.42781,2,2,79,220000,11850,105707,7006,124819,4844,72531,29976,1681,4683,4104,3999,2243,2039,2886,1017,38.7
Glacier Avenue,Juneau,AK,99801,58.30366,-134.42325,1,1,67,189500,11850,105707,7006,124819,4844,72531,29976,1681,4683,4104,3999,2243,2039,2886,1017,38.7
Glacier Avenue,Juneau,AK,99801,58.30366,-134.42325,1,1,67,174500,11850,105707,7006,124819,4844,72531,29976,1681,4683,4104,3999,2243,2039,2886,1017,38.7
Vista Drive,Juneau,AK,99801,58.285557,-134.41348,3,2,123,379900,11850,105707,7006,124819,4844,72531,29976,1681,4683,4104,3999,2243,2039,2886,1017,38.7
Back Loop Road,Juneau,AK,99801,58.38773,-134.64381,3,3,234,589900,11850,105707,7006,124819,4844,72531,29976,1681,4683,4104,3999,2243,2039,2886,1017,38.7
Denali Avenue,Ketchikan,AK,99901,55.358498,-131.6823,3,1,98,165000,5299,95227,3501,109083,1798,59888,13942,818,1877,1817,1751,1121,1013,1499,533,40.3
Austin Street,Ketchikan,AK,99901,55.34969,-131.67145,2,1,63,85000,5299,95227,3501,109083,1798,59888,13942,818,1877,1817,1751,1121,1013,1499,533,40.3
Tongass Avenue,Ketchikan,AK,99901,55.350777,-131.68048,2,2,97,309000,5299,95227,3501,109083,1798,59888,13942,818,1877,1817,1751,1121,1013,1499,533,40.3
Hemlock Street,Ketchikan,AK,99901,55.349667,-131.67413,1,1,60,70000,5299,95227,3501,109083,1798,59888,13942,818,1877,1817,1751,1121,1013,1499,533,40.3
B Street,Fairbanks,AK,99701,64.841385,-147.68657,1,2,125,329000,6903,81161,3952,92521,2951,63219,17781,1577,3583,1832,2043,1074,826,1872,555,33.9
28th Avenue,Fairbanks,AK,99701,64.8214,-147.73372,2,2,79,149900,6903,81161,3952,92521,2951,63219,17781,1577,3583,1832,2043,1074,826,1872,555,33.9
Marika Road,Fairbanks,AK,99709,64.854095,-147.75545,2,2,118,129900,11969,100803,7182,117994,4787,69731,27880,2074,4651,3453,3562,1377,1815,3048,1049,35.9
Harvest Way,Sitka,AK,99835,57.04989,-135.3064,3,2,119,239000,3572,93666,2214,112078,1358,57398,8514,471,1221,1250,999,624,644,862,390,39.2
Dartmouth Drive,Fairbanks,AK,99709,64.84543,-147.86389,3,2,116,225000,11969,100803,7182,117994,4787,69731,27880,2074,4651,3453,3562,1377,1815,3048,1049,35.9
East Danna Avenue,Wasilla,AK,99654,61.586685,-149.44766,2,1,91,140000,19203,97021,13894,109940,5309,57357,43671,2715,6034,6234,5167,2896,2587,3477,1141,35.1
East Susitna Avenue,Wasilla,AK,99654,61.579014,-149.42755,3,2,141,205000,19203,97021,13894,109940,5309,57357,43671,2715,6034,6234,5167,2896,2587,3477,1141,35.1
East Susitna Avenue,Wasilla,AK,99654,61.579014,-149.42755,3,2,141,235000,19203,97021,13894,109940,5309,57357,43671,2715,6034,6234,5167,2896,2587,3477,1141,35.1
East Neil Circle,Wasilla,AK,99654,61.571148,-149.40866,2,1,84,160000,19203,97021,13894,109940,5309,57357,43671,2715,6034,6234,5167,2896,2587,3477,1141,35.1
Kenai Street,Valdez,AK,99686,60.77254,-148.6855,3,1,86,64500,1523,94048,968,103060,555,73321,3978,106,542,597,449,179,545,395,106,40.5
Vista Ridge Loop,Eagle River,AK,99577,61.331596,-149.56317,3,2,126,310000,9649,126943,7117,142248,2532,76609,28264,1410,4954,4182,3281,1760,1816,2137,622,34.5
South Ragosa Circle,Palmer,AK,99645,61.588257,-149.10396,1,1,104,225000,8726,99861,6357,111458,2369,58415,30706,1877,4338,4107,3791,2076,1770,2573,851,35.2
Vista Ridge Loop,Eagle River,AK,99577,61.33092,-149.56358,3,3,158,345000,9649,126943,7117,142248,2532,76609,28264,1410,4954,4182,3281,1760,1816,2137,622,34.5
East Danna Avenue,Wasilla,AK,99654,61.586685,-149.44766,2,1,91,128000,19203,97021,13894,109940,5309,57357,43671,2715,6034,6234,5167,2896,2587,3477,1141,35.1
Trailhead Avenue,Eagle River,AK,99577,61.30037,-149.49196,4,4,215,415000,9649,126943,7117,142248,2532,76609,28264,1410,4954,4182,3281,1760,1816,2137,622,34.5
Falklands Drive,Eagle River,AK,99577,61.32674,-149.57861,3,3,141,274900,9649,126943,7117,142248,2532,76609,28264,1410,4954,4182,3281,1760,1816,2137,622,34.5
Wendy Lane,Soldotna,AK,99669,60.463234,-151.19035,2,1,84,216900,6345,106461,4363,124460,1982,62200,17725,1090,1807,2221,2246,1248,1606,2015,647,41.6
West Kathy Circle,Wasilla,AK,99654,61.614475,-149.5043,3,2,123,195000,19203,97021,13894,109940,5309,57357,43671,2715,6034,6234,5167,2896,2587,3477,1141,35.1
Eagle Place Loop,Eagle River,AK,99577,61.30092,-149.50879,3,2,135,340000,9649,126943,7117,142248,2532,76609,28264,1410,4954,4182,3281,1760,1816,2137,622,34.5
Old Glenn Highway,Eagle River,AK,99577,61.331844,-149.5637,3,2,126,271500,9649,126943,7117,142248,2532,76609,28264,1410,4954,4182,3281,1760,1816,2137,622,34.5
Falklands Drive,Eagle River,AK,99577,61.326828,-149.57849,2,3,141,300000,9649,126943,7117,142248,2532,76609,28264,1410,4954,4182,3281,1760,1816,2137,622,34.5
Eagle Place Loop,Eagle River,AK,99577,61.300945,-149.50879,3,2,137,355000,9649,126943,7117,142248,2532,76609,28264,1410,4954,4182,3281,1760,1816,2137,622,34.5
Hannah Jane Place,Eagle River,AK,99577,61.320084,-149.56805,4,3,145,315000,9649,126943,7117,142248,2532,76609,28264,1410,4954,4182,3281,1760,1816,2137,622,34.5
Fire Eagle Way,Eagle River,AK,99577,61.34539,-149.55745,3,2,142,249000,9649,126943,7117,142248,2532,76609,28264,1410,4954,4182,3281,1760,1816,2137,622,34.5
Trailhead Avenue,Eagle River,AK,99577,61.30028,-149.4945,4,4,215,365000,9649,126943,7117,142248,2532,76609,28264,1410,4954,4182,3281,1760,1816,2137,622,34.5
Eagle Place Loop,Eagle River,AK,99577,61.300945,-149.50879,3,2,135,287000,9649,126943,7117,142248,2532,76609,28264,1410,4954,4182,3281,1760,1816,2137,622,34.5
River's Edge Lane,Eagle River,AK,99577,61.311108,-149.57239,2,3,134,249900,9649,126943,7117,142248,2532,76609,28264,1410,4954,4182,3281,1760,1816,2137,622,34.5
Horseshoe Drive,Eagle River,AK,99577,61.33011,-149.5625,2,2,104,239900,9649,126943,7117,142248,2532,76609,28264,1410,4954,4182,3281,1760,1816,2137,622,34.5
Driftwood Bay Drive,Eagle River,AK,99577,61.30016,-149.498,3,4,215,385000,9649,126943,7117,142248,2532,76609,28264,1410,4954,4182,3281,1760,1816,2137,622,34.5
Hunterwood Lane,Eagle River,AK,99577,61.344578,-149.55617,3,2,141,252000,9649,126943,7117,142248,2532,76609,28264,1410,4954,4182,3281,1760,1816,2137,622,34.5
West Bering Street,Soldotna,AK,99669,60.48638,-151.08566,2,2,144,364900,6345,106461,4363,124460,1982,62200,17725,1090,1807,2221,2246,1248,1606,2015,647,41.6
Business Boulevard,Eagle River,AK,99577,61.327,-149.57596,1,1,51,149000,9649,126943,7117,142248,2532,76609,28264,1410,4954,4182,3281,1760,1816,2137,622,34.5
Fire Creek Trail Drive,Eagle River,AK,99577,61.345673,-149.55534,3,2,126,239000,9649,126943,7117,142248,2532,76609,28264,1410,4954,4182,3281,1760,1816,2137,622,34.5
Hummer Bay Drive,Eagle River,AK,99577,61.326187,-149.58006,3,2,144,263000,9649,126943,7117,142248,2532,76609,28264,1410,4954,4182,3281,1760,1816,2137,622,34.5
Horseshoe Drive,Eagle River,AK,99577,61.32997,-149.56375,2,2,111,225000,9649,126943,7117,142248,2532,76609,28264,1410,4954,4182,3281,1760,1816,2137,622,34.5
East Melissa Rose Circle,Palmer,AK,99645,61.58838,-149.10814,2,2,137,279900,8726,99861,6357,111458,2369,58415,30706,1877,4338,4107,3791,2076,1770,2573,851,35.2
Fire Eagle Way,Eagle River,AK,99577,61.34539,-149.55745,3,2,141,245000,9649,126943,7117,142248,2532,76609,28264,1410,4954,4182,3281,1760,1816,2137,622,34.5
Wood River Way,Eagle River,AK,99577,61.32285,-149.57558,2,2,101,249900,9649,126943,7117,142248,2532,76609,28264,1410,4954,4182,3281,1760,1816,2137,622,34.5
Vista Ridge Loop,Eagle River,AK,99577,61.331596,-149.56317,3,3,146,339000,9649,126943,7117,142248,2532,76609,28264,1410,4954,4182,3281,1760,1816,2137,622,34.5
Business Boulevard,Eagle River,AK,99577,61.327,-149.57596,1,1,51,157000,9649,126943,7117,142248,2532,76609,28264,1410,4954,4182,3281,1760,1816,2137,622,34.5
Eagles Nest Court,Eagle River,AK,99577,61.304432,-149.50742,4,3,217,499000,9649,126943,7117,142248,2532,76609,28264,1410,4954,4182,3281,1760,1816,2137,622,34.5
River Heights Loop,Eagle River,AK,99577,61.312065,-149.57191,2,3,134,250000,9649,126943,7117,142248,2532,76609,28264,1410,4954,4182,3281,1760,1816,2137,622,34.5
Eagles Nest Court,Eagle River,AK,99577,61.30422,-149.5055,3,3,167,445000,9649,126943,7117,142248,2532,76609,28264,1410,4954,4182,3281,1760,1816,2137,622,34.5
Conquistador Drive,Eagle River,AK,99577,61.323196,-149.5672,3,3,156,370900,9649,126943,7117,142248,2532,76609,28264,1410,4954,4182,3281,1760,1816,2137,622,34.5
Conquistador Drive,Eagle River,AK,99577,61.323257,-149.5672,3,3,152,367900,9649,126943,7117,142248,2532,76609,28264,1410,4954,4182,3281,1760,1816,2137,622,34.5
River's Edge Lane,Eagle River,AK,99577,61.311108,-149.57224,2,3,134,239000,9649,126943,7117,142248,2532,76609,28264,1410,4954,4182,3281,1760,1816,2137,622,34.5
Sherman Street,Chugiak,AK,99567,61.396828,-149.45576,3,2,148,383000,3062,125905,2667,131223,395,89777,7819,411,1076,749,908,703,962,899,182,41.6
Foxridge Way,Anchorage,AK,99518,61.15306,-149.88464,2,2,70,225000,4172,94295,2369,106317,1803,73882,10180,438,2538,1390,1186,786,479,544,266,32.9
Canton Loop,Anchorage,AK,99515,61.133976,-149.91586,3,2,110,230000,7624,124110,5397,131463,2227,91008,21596,1481,2530,3172,2838,1387,1463,1793,718,37.9
Highlander Circle,Anchorage,AK,99518,61.149364,-149.89096,3,3,192,365000,4172,94295,2369,106317,1803,73882,10180,438,2538,1390,1186,786,479,544,266,32.9
Stonegate Circle,Anchorage,AK,99515,61.13296,-149.9164,2,1,108,235000,7624,124110,5397,131463,2227,91008,21596,1481,2530,3172,2838,1387,1463,1793,718,37.9
Molanary Drive,Anchorage,AK,99502,61.142616,-149.94997,2,1,78,125000,8994,118867,6350,134240,2644,77261,26288,1340,4484,4357,3265,1759,801,1276,871,33.3
West International Airport Road,Anchorage,AK,99502,61.174423,-149.93524,2,2,95,178000,8994,118867,6350,134240,2644,77261,26288,1340,4484,4357,3265,1759,801,1276,871,33.3
Commons Place,Anchorage,AK,99502,61.13638,-149.942,3,2,124,265000,8994,118867,6350,134240,2644,77261,26288,1340,4484,4357,3265,1759,801,1276,871,33.3
Huntsmen Circle,Anchorage,AK,99518,61.154243,-149.88481,2,2,69,180000,4172,94295,2369,106317,1803,73882,10180,438,2538,1390,1186,786,479,544,266,32.9
Sand Lake,Anchorage,AK,99502,61.13734,-149.9458,2,1,78,159000,8994,118867,6350,134240,2644,77261,26288,1340,4484,4357,3265,1759,801,1276,871,33.3
Roald Amundsen Avenue,Anchorage,AK,99517,61.18503,-149.95459,3,3,158,424900,6892,111971,3866,131065,3026,82685,16014,920,2630,2157,1965,1122,1128,1740,523,39.2
Foxridge Circle,Anchorage,AK,99518,61.155445,-149.88478,2,2,69,170000,4172,94295,2369,106317,1803,73882,10180,438,2538,1390,1186,786,479,544,266,32.9
West International Airport Road,Anchorage,AK,99502,61.174423,-149.93524,2,2,95,190000,8994,118867,6350,134240,2644,77261,26288,1340,4484,4357,3265,1759,801,1276,871,33.3
Canton Loop,Anchorage,AK,99515,61.133633,-149.91519,3,2,111,255000,7624,124110,5397,131463,2227,91008,21596,1481,2530,3172,2838,1387,1463,1793,718,37.9
Discovery View Drive,Anchorage,AK,99515,61.11734,-149.9321,2,2,96,290000,7624,124110,5397,131463,2227,91008,21596,1481,2530,3172,2838,1387,1463,1793,718,37.9
Lakeshore Drive,Anchorage,AK,99517,61.18097,-149.95001,2,2,80,205000,6892,111971,3866,131065,3026,82685,16014,920,2630,2157,1965,1122,1128,1740,523,39.2
McRae Road,Anchorage,AK,99517,61.185745,-149.92569,2,1,90,99000,6892,111971,3866,131065,3026,82685,16014,920,2630,2157,1965,1122,1128,1740,523,39.2
Canton Loop,Anchorage,AK,99515,61.134064,-149.91682,3,2,108,250000,7624,124110,5397,131463,2227,91008,21596,1481,2530,3172,2838,1387,1463,1793,718,37.9
Discovery View Drive,Anchorage,AK,99515,61.11576,-149.93002,3,3,198,410000,7624,124110,5397,131463,2227,91008,21596,1481,2530,3172,2838,1387,1463,1793,718,37.9
Discovery Park Drive,Anchorage,AK,99515,61.11718,-149.93318,3,3,177,415000,7624,124110,5397,131463,2227,91008,21596,1481,2530,3172,2838,1387,1463,1793,718,37.9
Moorland Street,Anchorage,AK,99502,61.143818,-149.9552,2,2,135,325000,8994,118867,6350,134240,2644,77261,26288,1340,4484,4357,3265,1759,801,1276,871,33.3
Jewel Lake Road,Anchorage,AK,99502,61.143543,-149.9516,2,2,99,155000,8994,118867,6350,134240,2644,77261,26288,1340,4484,4357,3265,1759,801,1276,871,33.3
Foxridge Way,Jeffersontown,AK,99518,61.153572,-149.88489,2,2,69,170000,4172,94295,2369,106317,1803,73882,10180,438,2538,1390,1186,786,479,544,266,32.9
Harbor Landing Circle,Anchorage,AK,99515,61.126965,-149.9233,3,3,199,410000,7624,124110,5397,131463,2227,91008,21596,1481,2530,3172,2838,1387,1463,1793,718,37.9
West 76th Avenue,Anchorage,AK,99518,61.151814,-149.88902,2,1,84,165000,4172,94295,2369,106317,1803,73882,10180,438,2538,1390,1186,786,479,544,266,32.9
Sand Lake,Anchorage,AK,99502,61.13734,-149.9458,2,1,78,168000,8994,118867,6350,134240,2644,77261,26288,1340,4484,4357,3265,1759,801,1276,871,33.3
Arctic Boulevard,Anchorage,AK,99518,61.17245,-149.89838,3,2,179,294900,4172,94295,2369,106317,1803,73882,10180,438,2538,1390,1186,786,479,544,266,32.9
Weimer Road,Anchorage,AK,99502,61.155804,-149.94989,2,1,94,110000,8994,118867,6350,134240,2644,77261,26288,1340,4484,4357,3265,1759,801,1276,871,33.3
North Star Street,Anchorage,AK,99503,61.20083,-149.9007,2,2,125,259900,6167,73025,2999,85128,3168,58358,12360,1205,2962,1483,1718,844,870,871,615,36.2
Potlatch Circle,Anchorage,AK,99503,61.2017,-149.90161,3,2,169,369900,6167,73025,2999,85128,3168,58358,12360,1205,2962,1483,1718,844,870,871,615,36.2
Eastridge Drive,Anchorage,AK,99501,61.20458,-149.84189,2,1,84,122500,7256,87836,2940,117534,4316,65106,16267,1029,3364,2282,2143,908,1080,1712,733,38
West 23rd Avenue,Anchorage,AK,99503,61.19971,-149.89903,2,1,78,125000,6167,73025,2999,85128,3168,58358,12360,1205,2962,1483,1718,844,870,871,615,36.2
Nelchina Street,Anchorage,AK,99501,61.20643,-149.85587,2,2,114,189000,7256,87836,2940,117534,4316,65106,16267,1029,3364,2282,2143,908,1080,1712,733,38
Denali Street,Anchorage,AK,99501,61.21099,-149.87767,2,2,84,160000,7256,87836,2940,117534,4316,65106,16267,1029,3364,2282,2143,908,1080,1712,733,38
East 7th Avenue,Anchorage,AK,99501,61.21532,-149.87993,2,3,132,509900,7256,87836,2940,117534,4316,65106,16267,1029,3364,2282,2143,908,1080,1712,733,38
East 7th Avenue,Anchorage,AK,99501,61.215862,-149.88034,1,1,67,128000,7256,87836,2940,117534,4316,65106,16267,1029,3364,2282,2143,908,1080,1712,733,38
East 12th Avenue,Anchorage,AK,99501,61.21067,-149.87686,1,1,62,165000,7256,87836,2940,117534,4316,65106,16267,1029,3364,2282,2143,908,1080,1712,733,38
Sitka Street,Anchorage,AK,99501,61.205162,-149.84402,2,1,81,140000,7256,87836,2940,117534,4316,65106,16267,1029,3364,2282,2143,908,1080,1712,733,38
Montclaire Court,Anchorage,AK,99503,61.190655,-149.8947,3,2,126,219900,6167,73025,2999,85128,3168,58358,12360,1205,2962,1483,1718,844,870,871,615,36.2
Juneau Street,Anchorage,AK,99501,61.212906,-149.86458,3,2,118,150000,7256,87836,2940,117534,4316,65106,16267,1029,3364,2282,2143,908,1080,1712,733,38
G Street,Anchorage,AK,99501,61.20658,-149.89494,3,2,145,519000,7256,87836,2940,117534,4316,65106,16267,1029,3364,2282,2143,908,1080,1712,733,38
East 14th Avenue,Anchorage,AK,99501,61.208973,-149.87817,2,2,91,169900,7256,87836,2940,117534,4316,65106,16267,1029,3364,2282,2143,908,1080,1712,733,38
Nelchina Street,Anchorage,AK,99501,61.206623,-149.85645,3,3,157,260000,7256,87836,2940,117534,4316,65106,16267,1029,3364,2282,2143,908,1080,1712,733,38
East 11th Avenue,Anchorage,AK,99501,61.21133,-149.87868,1,1,65,110000,7256,87836,2940,117534,4316,65106,16267,1029,3364,2282,2143,908,1080,1712,733,38
Denali Street,Anchorage,AK,99501,61.21099,-149.87767,1,1,78,172000,7256,87836,2940,117534,4316,65106,16267,1029,3364,2282,2143,908,1080,1712,733,38
East 11th Avenue,Anchorage,AK,99501,61.211372,-149.87787,2,2,86,167000,7256,87836,2940,117534,4316,65106,16267,1029,3364,2282,2143,908,1080,1712,733,38
Eastridge Drive,Anchorage,AK,99501,61.2055,-149.84546,2,1,80,149000,7256,87836,2940,117534,4316,65106,16267,1029,3364,2282,2143,908,1080,1712,733,38
Monticello Court,Anchorage,AK,99503,61.190582,-149.89128,2,2,116,217500,6167,73025,2999,85128,3168,58358,12360,1205,2962,1483,1718,844,870,871,615,36.2
West 22nd Avenue,Anchorage,AK,99503,61.20091,-149.88617,2,2,92,204900,6167,73025,2999,85128,3168,58358,12360,1205,2962,1483,1718,844,870,871,615,36.2
East 17th Avenue,Anchorage,AK,99501,61.205196,-149.8551,1,2,76,150000,7256,87836,2940,117534,4316,65106,16267,1029,3364,2282,2143,908,1080,1712,733,38
I Street,Anchorage,AK,99501,61.21068,-149.89989,2,2,111,225000,7256,87836,2940,117534,4316,65106,16267,1029,3364,2282,2143,908,1080,1712,733,38
West 22nd Avenue,Anchorage,AK,99503,61.20091,-149.88585,2,2,99,216000,6167,73025,2999,85128,3168,58358,12360,1205,2962,1483,1718,844,870,871,615,36.2
North Star Street,Anchorage,AK,99503,61.20083,-149.9007,2,2,125,260000,6167,73025,2999,85128,3168,58358,12360,1205,2962,1483,1718,844,870,871,615,36.2
East 14th Avenue,Anchorage,AK,99501,61.208973,-149.87817,2,1,70,100700,7256,87836,2940,117534,4316,65106,16267,1029,3364,2282,2143,908,1080,1712,733,38
Montpelier Court,Anchorage,AK,99503,61.1912,-149.89127,2,2,116,219900,6167,73025,2999,85128,3168,58358,12360,1205,2962,1483,1718,844,870,871,615,36.2
Latouche Street,Anchorage,AK,99501,61.20855,-149.86044,3,4,180,355000,7256,87836,2940,117534,4316,65106,16267,1029,3364,2282,2143,908,1080,1712,733,38
East 12th Avenue,Anchorage,AK,99501,61.210938,-149.8655,3,3,122,119000,7256,87836,2940,117534,4316,65106,16267,1029,3364,2282,2143,908,1080,1712,733,38
I Street,Anchorage,AK,99501,61.21068,-149.89989,2,2,104,370000,7256,87836,2940,117534,4316,65106,16267,1029,3364,2282,2143,908,1080,1712,733,38
Potlatch Circle,Anchorage,AK,99503,61.2017,-149.90158,3,2,169,354900,6167,73025,2999,85128,3168,58358,12360,1205,2962,1483,1718,844,870,871,615,36.2
East 11th Avenue,Anchorage,AK,99501,61.210808,-149.87889,1,1,65,135000,7256,87836,2940,117534,4316,65106,16267,1029,3364,2282,2143,908,1080,1712,733,38
Top Rail Lane,Anchorage,AK,99501,61.22063,-149.89694,2,3,158,699900,7256,87836,2940,117534,4316,65106,16267,1029,3364,2282,2143,908,1080,1712,733,38
Top Rail Lane,Anchorage,AK,99501,61.2207,-149.89656,2,3,158,702000,7256,87836,2940,117534,4316,65106,16267,1029,3364,2282,2143,908,1080,1712,733,38
North C Street,Anchorage,AK,99501,61.221798,-149.88705,2,3,158,699900,7256,87836,2940,117534,4316,65106,16267,1029,3364,2282,2143,908,1080,1712,733,38
Top Rail Lane,Anchorage,AK,99501,61.22066,-149.89677,2,3,158,702900,7256,87836,2940,117534,4316,65106,16267,1029,3364,2282,2143,908,1080,1712,733,38
I Street,Anchorage,AK,99501,61.21036,-149.90125,2,2,98,345000,7256,87836,2940,117534,4316,65106,16267,1029,3364,2282,2143,908,1080,1712,733,38
East 16th Avenue,Anchorage,AK,99501,61.20605,-149.8606,2,2,172,245900,7256,87836,2940,117534,4316,65106,16267,1029,3364,2282,2143,908,1080,1712,733,38
Denali Street,Anchorage,AK,99503,61.180126,-149.87733,4,2,143,219000,6167,73025,2999,85128,3168,58358,12360,1205,2962,1483,1718,844,870,871,615,36.2
East 17th Avenue,Anchorage,AK,99501,61.205196,-149.8551,2,2,76,139900,7256,87836,2940,117534,4316,65106,16267,1029,3364,2282,2143,908,1080,1712,733,38
Dailey Avenue,Anchorage,AK,99515,61.110565,-149.87357,2,2,87,190000,7624,124110,5397,131463,2227,91008,21596,1481,2530,3172,2838,1387,1463,1793,718,37.9
Bona Kim Loop,Anchorage,AK,99515,61.10677,-149.8578,3,3,171,347900,7624,124110,5397,131463,2227,91008,21596,1481,2530,3172,2838,1387,1463,1793,718,37.9
Dailey Avenue,Anchorage,AK,99515,61.11097,-149.87523,3,2,105,210000,7624,124110,5397,131463,2227,91008,21596,1481,2530,3172,2838,1387,1463,1793,718,37.9
Coral Reef Place,Anchorage,AK,99515,61.111748,-149.87396,3,2,116,275000,7624,124110,5397,131463,2227,91008,21596,1481,2530,3172,2838,1387,1463,1793,718,37.9
Pacific Place,Anchorage,AK,99501,61.21602,-149.90623,2,3,124,429900,7256,87836,2940,117534,4316,65106,16267,1029,3364,2282,2143,908,1080,1712,733,38
Woodroe Lane,Anchorage,AK,99507,61.16831,-149.85173,3,2,127,272500,13485,115895,9166,130234,4319,78815,35916,2255,6674,4692,4860,2349,2167,2733,902,35.3
L Street,Anchorage,AK,99501,61.21715,-149.9043,2,2,151,789900,7256,87836,2940,117534,4316,65106,16267,1029,3364,2282,2143,908,1080,1712,733,38
Lumbis Avenue,Anchorage,AK,99518,61.15152,-149.8676,2,2,95,239000,4172,94295,2369,106317,1803,73882,10180,438,2538,1390,1186,786,479,544,266,32.9
Meadow Street,Anchorage,AK,99507,61.15297,-149.85172,4,2,126,235000,13485,115895,9166,130234,4319,78815,35916,2255,6674,4692,4860,2349,2167,2733,902,35.3
East 56th Avenue,Anchorage,AK,99518,61.16988,-149.87497,2,2,69,182500,4172,94295,2369,106317,1803,73882,10180,438,2538,1390,1186,786,479,544,266,32.9
Abbington Court,Anchorage,AK,99503,61.176567,-149.86269,2,2,90,240000,6167,73025,2999,85128,3168,58358,12360,1205,2962,1483,1718,844,870,871,615,36.2
Taku / Campbell,Anchorage,AK,99518,61.1553,-149.88428,2,2,69,135000,4172,94295,2369,106317,1803,73882,10180,438,2538,1390,1186,786,479,544,266,32.9
Fairweather Drive,Anchorage,AK,99518,61.16327,-149.87207,2,3,147,280000,4172,94295,2369,106317,1803,73882,10180,438,2538,1390,1186,786,479,544,266,32.9
Meadow Street,Anchorage,AK,99507,61.154484,-149.85172,2,2,102,225000,13485,115895,9166,130234,4319,78815,35916,2255,6674,4692,4860,2349,2167,2733,902,35.3
East 73rd Avenue,Anchorage,AK,99518,61.154392,-149.86992,3,3,159,439900,4172,94295,2369,106317,1803,73882,10180,438,2538,1390,1186,786,479,544,266,32.9
N Street,Anchorage,AK,99501,61.21545,-149.90778,2,2,106,396000,7256,87836,2940,117534,4316,65106,16267,1029,3364,2282,2143,908,1080,1712,733,38
Hillcrest & Romig Place ESE,Anchorage,AK,99503,61.20056,-149.90974,1,1,58,133000,6167,73025,2999,85128,3168,58358,12360,1205,2962,1483,1718,844,870,871,615,36.2
Evander Drive,Anchorage,AK,99518,61.151814,-149.87283,3,3,161,300000,4172,94295,2369,106317,1803,73882,10180,438,2538,1390,1186,786,479,544,266,32.9
O Street,Anchorage,AK,99501,61.2154,-149.90953,2,2,106,370000,7256,87836,2940,117534,4316,65106,16267,1029,3364,2282,2143,908,1080,1712,733,38
Chugach Meadows Loop,Anchorage,AK,99507,61.154293,-149.85236,2,2,102,224900,13485,115895,9166,130234,4319,78815,35916,2255,6674,4692,4860,2349,2167,2733,902,35.3
Meadow Street,Anchorage,AK,99507,61.15765,-149.85184,2,2,93,220000,13485,115895,9166,130234,4319,78815,35916,2255,6674,4692,4860,2349,2167,2733,902,35.3
Meadow Street,Anchorage,AK,99507,61.153324,-149.85172,3,2,103,205000,13485,115895,9166,130234,4319,78815,35916,2255,6674,4692,4860,2349,2167,2733,902,35.3
East 17th Avenue,Anchorage,AK,99501,61.205196,-149.8551,1,2,75,114000,7256,87836,2940,117534,4316,65106,16267,1029,3364,2282,2143,908,1080,1712,733,38
I Street,Anchorage,AK,99501,61.21068,-149.89989,2,2,192,835000,7256,87836,2940,117534,4316,65106,16267,1029,3364,2282,2143,908,1080,1712,733,38
Dailey Avenue,Anchorage,AK,99515,61.110283,-149.87604,3,3,153,350000,7624,124110,5397,131463,2227,91008,21596,1481,2530,3172,2838,1387,1463,1793,718,37.9
Pheasant Avenue,Homer,AK,99603,59.715946,-151.30392,2,2,116,375000,4243,83219,2591,98487,1652,55565,10852,477,1437,1423,1086,851,843,1465,378,39.9
Bay Avenue,Homer,AK,99603,59.638847,-151.50467,4,2,117,279000,4243,83219,2591,98487,1652,55565,10852,477,1437,1423,1086,851,843,1465,378,39.9
Auk Street,Kenai,AK,99611,60.559788,-151.20656,3,3,127,99000,5360,84095,3239,97022,2121,59561,14594,863,2153,1810,1714,922,992,1260,831,36.7
Hightower Road,Girdwood,AK,99587,60.9629,-149.1336,1,1,75,375000,894,119128,427,152558,467,76586,2029,66,263,443,420,119,98,145,99,42.9
Crystal Mountain Road,Girdwood,AK,99587,60.961185,-149.10796,1,1,61,380000,894,119128,427,152558,467,76586,2029,66,263,443,420,119,98,145,99,42.9
Hightower Road,Girdwood,AK,99587,60.965008,-149.13211,2,2,102,489500,894,119128,427,152558,467,76586,2029,66,263,443,420,119,98,145,99,42.9
Bowpicker Lane,Kenai,AK,99611,60.532593,-151.25813,3,3,265,769999,5360,84095,3239,97022,2121,59561,14594,863,2153,1810,1714,922,992,1260,831,36.7
Bowpicker Lane,Kenai,AK,99611,60.532593,-151.25813,3,4,210,659999,5360,84095,3239,97022,2121,59561,14594,863,2153,1810,1714,922,992,1260,831,36.7
Powder Drive,Girdwood,AK,99587,60.9587,-149.11517,3,3,197,799000,894,119128,427,152558,467,76586,2029,66,263,443,420,119,98,145,99,42.9
Powder Drive,Girdwood,AK,99587,60.958702,-149.1152,3,3,197,799000,894,119128,427,152558,467,76586,2029,66,263,443,420,119,98,145,99,42.9
Hightower Road,Girdwood,AK,99587,60.965393,-149.13089,2,2,92,449999,894,119128,427,152558,467,76586,2029,66,263,443,420,119,98,145,99,42.9
Powder Drive,Girdwood,AK,99587,60.958748,-149.11449,3,3,197,799000,894,119128,427,152558,467,76586,2029,66,263,443,420,119,98,145,99,42.9
Powder Drive,Girdwood,AK,99587,60.958702,-149.11542,3,3,197,799000,894,119128,427,152558,467,76586,2029,66,263,443,420,119,98,145,99,42.9
Powder Drive,Girdwood,AK,99587,60.958702,-149.11537,3,3,197,799000,894,119128,427,152558,467,76586,2029,66,263,443,420,119,98,145,99,42.9
Powder Drive,Girdwood,AK,99587,60.958706,-149.11467,3,3,197,799000,894,119128,427,152558,467,76586,2029,66,263,443,420,119,98,145,99,42.9
Alyeska Highway,Girdwood,AK,99587,60.95834,-149.15201,3,3,158,715000,894,119128,427,152558,467,76586,2029,66,263,443,420,119,98,145,99,42.9
Ocean Point Drive,Anchorage,AK,99515,61.1117,-149.87154,2,2,90,219900,7624,124110,5397,131463,2227,91008,21596,1481,2530,3172,2838,1387,1463,1793,718,37.9
Johns Road,Anchorage,AK,99515,61.11212,-149.87848,3,3,175,490000,7624,124110,5397,131463,2227,91008,21596,1481,2530,3172,2838,1387,1463,1793,718,37.9
Fairweather Drive,Anchorage,AK,99518,61.15952,-149.87268,3,3,138,299900,4172,94295,2369,106317,1803,73882,10180,438,2538,1390,1186,786,479,544,266,32.9
Merlin Loop,Anchorage,AK,99518,61.15906,-149.86743,3,2,122,255000,4172,94295,2369,106317,1803,73882,10180,438,2538,1390,1186,786,479,544,266,32.9
Denali Street,Anchorage,AK,99518,61.16876,-149.87663,2,2,74,175000,4172,94295,2369,106317,1803,73882,10180,438,2538,1390,1186,786,479,544,266,32.9
Evander Drive,Anchorage,AK,99518,61.151814,-149.87315,3,3,152,355500,4172,94295,2369,106317,1803,73882,10180,438,2538,1390,1186,786,479,544,266,32.9
Meadow Street,Anchorage,AK,99507,61.15312,-149.85216,4,2,124,238000,13485,115895,9166,130234,4319,78815,35916,2255,6674,4692,4860,2349,2167,2733,902,35.3
Fairweather Drive,Anchorage,AK,99518,61.159184,-149.87299,3,2,137,285000,4172,94295,2369,106317,1803,73882,10180,438,2538,1390,1186,786,479,544,266,32.9
Hardwood Court,Anchorage,AK,99507,61.169495,-149.85144,3,2,127,313000,13485,115895,9166,130234,4319,78815,35916,2255,6674,4692,4860,2349,2167,2733,902,35.3
Meadow Street,Anchorage,AK,99507,61.153175,-149.85115,2,2,95,209500,13485,115895,9166,130234,4319,78815,35916,2255,6674,4692,4860,2349,2167,2733,902,35.3
P Street,Anchorage,AK,99501,61.212074,-149.91203,2,1,65,140000,7256,87836,2940,117534,4316,65106,16267,1029,3364,2282,2143,908,1080,1712,733,38
Wildrose Court,Anchorage,AK,99518,61.160007,-149.87057,2,2,103,155000,4172,94295,2369,106317,1803,73882,10180,438,2538,1390,1186,786,479,544,266,32.9
Pacific Place,Anchorage,AK,99501,61.216293,-149.90623,2,2,111,499000,7256,87836,2940,117534,4316,65106,16267,1029,3364,2282,2143,908,1080,1712,733,38
West 12th Avenue,Anchorage,AK,99501,61.21054,-149.91057,2,2,157,395000,7256,87836,2940,117534,4316,65106,16267,1029,3364,2282,2143,908,1080,1712,733,38
Foxridge Circle,Anchorage,AK,99518,61.15614,-149.88019,3,2,133,265000,4172,94295,2369,106317,1803,73882,10180,438,2538,1390,1186,786,479,544,266,32.9
East 56th Avenue,Anchorage,AK,99518,61.16988,-149.87497,2,1,69,165000,4172,94295,2369,106317,1803,73882,10180,438,2538,1390,1186,786,479,544,266,32.9
East Dowling Road,Anchorage,AK,99518,61.166065,-149.87636,3,3,155,285000,4172,94295,2369,106317,1803,73882,10180,438,2538,1390,1186,786,479,544,266,32.9
Fairweather Drive,Anchorage,AK,99518,61.15934,-149.87286,3,3,168,330000,4172,94295,2369,106317,1803,73882,10180,438,2538,1390,1186,786,479,544,266,32.9
Spenard Road,Anchorage,AK,99503,61.203285,-149.90579,3,3,242,599900,6167,73025,2999,85128,3168,58358,12360,1205,2962,1483,1718,844,870,871,615,36.2
M Street,Anchorage,AK,99501,61.21833,-149.90546,1,2,113,263000,7256,87836,2940,117534,4316,65106,16267,1029,3364,2282,2143,908,1080,1712,733,38
Old Seward Highway,Anchorage,AK,99518,61.159218,-149.86533,3,2,120,224900,4172,94295,2369,106317,1803,73882,10180,438,2538,1390,1186,786,479,544,266,32.9
Marsha Loop,Anchorage,AK,99507,61.14745,-149.83134,3,3,136,319500,13485,115895,9166,130234,4319,78815,35916,2255,6674,4692,4860,2349,2167,2733,902,35.3
Independence Drive,Anchorage,AK,99507,61.133038,-149.84172,2,1,71,155000,13485,115895,9166,130234,4319,78815,35916,2255,6674,4692,4860,2349,2167,2733,902,35.3
Jamestown Circle,Anchorage,AK,99507,61.129005,-149.84492,1,1,59,169000,13485,115895,9166,130234,4319,78815,35916,2255,6674,4692,4860,2349,2167,2733,902,35.3
Elcadore Drive,Anchorage,AK,99507,61.123444,-149.85248,3,3,111,234500,13485,115895,9166,130234,4319,78815,35916,2255,6674,4692,4860,2349,2167,2733,902,35.3
O'Brien Street,Anchorage,AK,99507,61.15815,-149.83575,3,2,136,259000,13485,115895,9166,130234,4319,78815,35916,2255,6674,4692,4860,2349,2167,2733,902,35.3
Silver Chase Court,Anchorage,AK,99507,61.16677,-149.82791,3,2,129,260000,13485,115895,9166,130234,4319,78815,35916,2255,6674,4692,4860,2349,2167,2733,902,35.3
East 73rd Avenue,Anchorage,AK,99507,61.154564,-149.84389,3,2,133,319900,13485,115895,9166,130234,4319,78815,35916,2255,6674,4692,4860,2349,2167,2733,902,35.3
Zion Court,Anchorage,AK,99507,61.15342,-149.83531,4,3,214,421000,13485,115895,9166,130234,4319,78815,35916,2255,6674,4692,4860,2349,2167,2733,902,35.3
Happy Lane,Anchorage,AK,99507,61.1795,-149.82962,1,1,59,95000,13485,115895,9166,130234,4319,78815,35916,2255,6674,4692,4860,2349,2167,2733,902,35.3
East 73rd Avenue,Anchorage,AK,99507,61.154564,-149.84407,2,2,133,249000,13485,115895,9166,130234,4319,78815,35916,2255,6674,4692,4860,2349,2167,2733,902,35.3
Elcadore Drive,Anchorage,AK,99507,61.12342,-149.8533,2,2,91,197500,13485,115895,9166,130234,4319,78815,35916,2255,6674,4692,4860,2349,2167,2733,902,35.3
Piper Street,Anchorage,AK,99507,61.17878,-149.82391,3,2,94,225000,13485,115895,9166,130234,4319,78815,35916,2255,6674,4692,4860,2349,2167,2733,902,35.3
Marsha Loop,Anchorage,AK,99507,61.14745,-149.83134,3,3,137,342000,13485,115895,9166,130234,4319,78815,35916,2255,6674,4692,4860,2349,2167,2733,902,35.3
Vanguard Drive,Anchorage,AK,99507,61.132484,-149.8464,2,1,76,150000,13485,115895,9166,130234,4319,78815,35916,2255,6674,4692,4860,2349,2167,2733,902,35.3
Laurel Street,Anchorage,AK,99507,61.165894,-149.83394,3,2,129,275000,13485,115895,9166,130234,4319,78815,35916,2255,6674,4692,4860,2349,2167,2733,902,35.3
Jamestown Drive,Anchorage,AK,99507,61.128567,-149.845,2,1,68,159000,13485,115895,9166,130234,4319,78815,35916,2255,6674,4692,4860,2349,2167,2733,902,35.3
Marsha Loop,Anchorage,AK,99507,61.14745,-149.83134,3,2,137,319999,13485,115895,9166,130234,4319,78815,35916,2255,6674,4692,4860,2349,2167,2733,902,35.3
East 20th Avenue,Anchorage,AK,99508,61.20273,-149.81732,2,1,87,270000,12815,80703,7732,88692,5083,61314,39926,3284,6224,4989,4921,1842,2160,2491,816,30.9
Reka Drive,Anchorage,AK,99508,61.20402,-149.80585,2,2,99,135000,12815,80703,7732,88692,5083,61314,39926,3284,6224,4989,4921,1842,2160,2491,816,30.9
Russian Jack Park,Anchorage,AK,99508,61.202625,-149.80672,2,2,87,155900,12815,80703,7732,88692,5083,61314,39926,3284,6224,4989,4921,1842,2160,2491,816,30.9
Tamarra Circle,Anchorage,AK,99508,61.20402,-149.8033,3,2,131,165000,12815,80703,7732,88692,5083,61314,39926,3284,6224,4989,4921,1842,2160,2491,816,30.9
East 42nd Avenue,Anchorage,AK,99508,61.18219,-149.82979,2,2,74,165000,12815,80703,7732,88692,5083,61314,39926,3284,6224,4989,4921,1842,2160,2491,816,30.9
Jamestown Drive,Anchorage,AK,99507,61.128227,-149.84563,2,1,68,159000,13485,115895,9166,130234,4319,78815,35916,2255,6674,4692,4860,2349,2167,2733,902,35.3
Bragaw Square Place,Anchorage,AK,99508,61.203224,-149.80942,3,2,125,199900,12815,80703,7732,88692,5083,61314,39926,3284,6224,4989,4921,1842,2160,2491,816,30.9
East 42nd Avenue,Anchorage,AK,99508,61.182777,-149.82567,2,2,83,165000,12815,80703,7732,88692,5083,61314,39926,3284,6224,4989,4921,1842,2160,2491,816,30.9
East Tudor Road,Anchorage,AK,99508,61.181347,-149.83098,2,2,75,165000,12815,80703,7732,88692,5083,61314,39926,3284,6224,4989,4921,1842,2160,2491,816,30.9
East 42nd Avenue,Anchorage,AK,99508,61.182777,-149.8254,2,2,83,155000,12815,80703,7732,88692,5083,61314,39926,3284,6224,4989,4921,1842,2160,2491,816,30.9
Alexander Avenue,Anchorage,AK,99508,61.203083,-149.81558,2,2,84,250000,12815,80703,7732,88692,5083,61314,39926,3284,6224,4989,4921,1842,2160,2491,816,30.9
Delridge Circle,Anchorage,AK,99507,61.15059,-149.82721,3,3,151,380000,13485,115895,9166,130234,4319,78815,35916,2255,6674,4692,4860,2349,2167,2733,902,35.3
Grumman Street,Anchorage,AK,99507,61.177357,-149.8214,3,3,163,365000,13485,115895,9166,130234,4319,78815,35916,2255,6674,4692,4860,2349,2167,2733,902,35.3
Marsha Loop,Anchorage,AK,99507,61.14745,-149.83134,3,2,133,309900,13485,115895,9166,130234,4319,78815,35916,2255,6674,4692,4860,2349,2167,2733,902,35.3
Lauren Creek Loop,Anchorage,AK,99507,61.173,-149.8338,3,2,127,275000,13485,115895,9166,130234,4319,78815,35916,2255,6674,4692,4860,2349,2167,2733,902,35.3
Russian Jack Park,Anchorage,AK,99508,61.202625,-149.80637,2,2,88,144500,12815,80703,7732,88692,5083,61314,39926,3284,6224,4989,4921,1842,2160,2491,816,30.9
Lumbis Avenue,Anchorage,AK,99518,61.149925,-149.8681,2,2,111,190000,4172,94295,2369,106317,1803,73882,10180,438,2538,1390,1186,786,479,544,266,32.9
Wright Street,Anchorage,AK,99507,61.17973,-149.82755,2,1,77,89500,13485,115895,9166,130234,4319,78815,35916,2255,6674,4692,4860,2349,2167,2733,902,35.3
Lumbis Avenue,Anchorage,AK,99518,61.149925,-149.8681,2,1,141,195000,4172,94295,2369,106317,1803,73882,10180,438,2538,1390,1186,786,479,544,266,32.9
Vanguard Drive,Anchorage,AK,99507,61.132656,-149.84724,2,1,77,164000,13485,115895,9166,130234,4319,78815,35916,2255,6674,4692,4860,2349,2167,2733,902,35.3
Russian Jack Park,Anchorage,AK,99508,61.202625,-149.80629,2,2,88,148000,12815,80703,7732,88692,5083,61314,39926,3284,6224,4989,4921,1842,2160,2491,816,30.9
Russian Jack Park,Anchorage,AK,99508,61.202625,-149.80644,2,2,87,134900,12815,80703,7732,88692,5083,61314,39926,3284,6224,4989,4921,1842,2160,2491,816,30.9
East 73rd Avenue,Anchorage,AK,99507,61.154564,-149.84404,3,2,134,239900,13485,115895,9166,130234,4319,78815,35916,2255,6674,4692,4860,2349,2167,2733,902,35.3
Meadow Lark Way,Anchorage,AK,99507,61.165085,-149.83199,2,2,98,229000,13485,115895,9166,130234,4319,78815,35916,2255,6674,4692,4860,2349,2167,2733,902,35.3
East Weile Avenue,Spokane,WA,99208,47.72264,-117.40407,2,1,74,200000,22139,84713,14866,100911,7273,46366,57606,3072,6869,7202,6818,3867,4211,6352,2635,40.2
Tanglewood Lakes Circle,Anchorage,AK,99516,61.116356,-149.85414,3,3,214,495000,7117,191131,5602,205106,1515,117927,21428,1091,1933,3271,3248,1555,1534,2151,610,41.4
Jamestown Drive,Anchorage,AK,99507,61.12785,-149.84373,2,1,68,125900,13485,115895,9166,130234,4319,78815,35916,2255,6674,4692,4860,2349,2167,2733,902,35.3
Hollybrook Circle,Anchorage,AK,99507,61.12635,-149.85045,3,3,161,364900,13485,115895,9166,130234,4319,78815,35916,2255,6674,4692,4860,2349,2167,2733,902,35.3
Elcadore Drive,Anchorage,AK,99507,61.123905,-149.85213,3,3,110,229000,13485,115895,9166,130234,4319,78815,35916,2255,6674,4692,4860,2349,2167,2733,902,35.3
Boundary Avenue,Anchorage,AK,99504,61.22404,-149.7371,2,1,91,185000,15522,91364,10230,101983,5292,63559,40872,3082,7295,4723,4303,2203,2933,3725,1538,34
East 41st Court,Anchorage,AK,99504,61.183853,-149.76364,3,2,160,270000,15522,91364,10230,101983,5292,63559,40872,3082,7295,4723,4303,2203,2933,3725,1538,34
Northview Drive,Anchorage,AK,99504,61.208073,-149.72768,2,1,94,149000,15522,91364,10230,101983,5292,63559,40872,3082,7295,4723,4303,2203,2933,3725,1538,34
Northview Drive,Anchorage,AK,99504,61.206406,-149.72696,2,1,94,147900,15522,91364,10230,101983,5292,63559,40872,3082,7295,4723,4303,2203,2933,3725,1538,34
Whispering Loop,Anchorage,AK,99504,61.22071,-149.75987,3,3,141,299000,15522,91364,10230,101983,5292,63559,40872,3082,7295,4723,4303,2203,2933,3725,1538,34
Whispering Loop,Anchorage,AK,99504,61.22072,-149.76021,3,3,152,410000,15522,91364,10230,101983,5292,63559,40872,3082,7295,4723,4303,2203,2933,3725,1538,34
East Northern Lights Boulevard,Anchorage,AK,99504,61.195133,-149.76,2,2,104,218500,15522,91364,10230,101983,5292,63559,40872,3082,7295,4723,4303,2203,2933,3725,1538,34
Matthew Paul Way,Anchorage,AK,99504,61.222927,-149.76213,3,2,119,215000,15522,91364,10230,101983,5292,63559,40872,3082,7295,4723,4303,2203,2933,3725,1538,34
Gold Kings Circle,Anchorage,AK,99504,61.22389,-149.75307,3,2,101,189500,15522,91364,10230,101983,5292,63559,40872,3082,7295,4723,4303,2203,2933,3725,1538,34
Normanshire Court,Anchorage,AK,99504,61.199543,-149.7313,3,2,141,265000,15522,91364,10230,101983,5292,63559,40872,3082,7295,4723,4303,2203,2933,3725,1538,34
Pinnacle Circle,Anchorage,AK,99504,61.18256,-149.73126,3,2,123,269500,15522,91364,10230,101983,5292,63559,40872,3082,7295,4723,4303,2203,2933,3725,1538,34
Moonrise Ridge Place,Anchorage,AK,99516,61.1171,-149.8542,3,4,202,525000,7117,191131,5602,205106,1515,117927,21428,1091,1933,3271,3248,1555,1534,2151,610,41.4
Boundary Avenue,Anchorage,AK,99504,61.22401,-149.71852,2,1,76,89990,15522,91364,10230,101983,5292,63559,40872,3082,7295,4723,4303,2203,2933,3725,1538,34
Ambler Lane,Anchorage,AK,99504,61.181454,-149.74799,2,2,69,191000,15522,91364,10230,101983,5292,63559,40872,3082,7295,4723,4303,2203,2933,3725,1538,34
West Northridge Court,Spokane,WA,99208,47.717968,-117.43981,2,1,79,258000,22139,84713,14866,100911,7273,46366,57606,3072,6869,7202,6818,3867,4211,6352,2635,40.2
Shageluk Street,Anchorage,AK,99504,61.22136,-149.76668,3,3,137,345000,15522,91364,10230,101983,5292,63559,40872,3082,7295,4723,4303,2203,2933,3725,1538,34
Gemini Drive,Anchorage,AK,99504,61.183563,-149.7502,3,2,143,260000,15522,91364,10230,101983,5292,63559,40872,3082,7295,4723,4303,2203,2933,3725,1538,34
East 12th Avenue,Anchorage,AK,99504,61.210934,-149.76497,3,2,107,135000,15522,91364,10230,101983,5292,63559,40872,3082,7295,4723,4303,2203,2933,3725,1538,34
North Country Homes Boulevard,Spokane,WA,99218,47.739334,-117.415085,2,2,95,250000,6490,78905,3711,100584,2779,48042,15233,1431,1836,1559,1605,592,918,1484,671,34.4
Brookshire Loop,Anchorage,AK,99504,61.19997,-149.7312,3,2,126,260000,15522,91364,10230,101983,5292,63559,40872,3082,7295,4723,4303,2203,2933,3725,1538,34
Muldoon Road,Anchorage,AK,99504,61.21794,-149.7328,3,3,164,265000,15522,91364,10230,101983,5292,63559,40872,3082,7295,4723,4303,2203,2933,3725,1538,34
Augusta Circle,Anchorage,AK,99504,61.18762,-149.72044,3,2,97,249000,15522,91364,10230,101983,5292,63559,40872,3082,7295,4723,4303,2203,2933,3725,1538,34
Gold Kings Avenue,Anchorage,AK,99504,61.22389,-149.75232,3,2,116,199000,15522,91364,10230,101983,5292,63559,40872,3082,7295,4723,4303,2203,2933,3725,1538,34
Early View Drive,Anchorage,AK,99504,61.206745,-149.71881,3,2,93,222000,15522,91364,10230,101983,5292,63559,40872,3082,7295,4723,4303,2203,2933,3725,1538,34
Defiance Street,Anchorage,AK,99504,61.18158,-149.77063,2,2,136,280000,15522,91364,10230,101983,5292,63559,40872,3082,7295,4723,4303,2203,2933,3725,1538,34
Grand Larry Street,Anchorage,AK,99504,61.22313,-149.72946,3,2,119,232000,15522,91364,10230,101983,5292,63559,40872,3082,7295,4723,4303,2203,2933,3725,1538,34
Pioneer Drive,Anchorage,AK,99504,61.18444,-149.73212,3,3,128,225000,15522,91364,10230,101983,5292,63559,40872,3082,7295,4723,4303,2203,2933,3725,1538,34
Grand Larry Street,Anchorage,AK,99504,61.22309,-149.7299,2,1,72,78000,15522,91364,10230,101983,5292,63559,40872,3082,7295,4723,4303,2203,2933,3725,1538,34
Gold Kings Avenue,Anchorage,AK,99504,61.22389,-149.75082,3,2,103,210000,15522,91364,10230,101983,5292,63559,40872,3082,7295,4723,4303,2203,2933,3725,1538,34
Krane Drive,Anchorage,AK,99504,61.219616,-149.75653,2,1,76,105000,15522,91364,10230,101983,5292,63559,40872,3082,7295,4723,4303,2203,2933,3725,1538,34
Boundary Avenue,Anchorage,AK,99504,61.22404,-149.73964,3,2,124,195000,15522,91364,10230,101983,5292,63559,40872,3082,7295,4723,4303,2203,2933,3725,1538,34
Matthew Paul Way,Anchorage,AK,99504,61.222855,-149.76233,2,2,109,212000,15522,91364,10230,101983,5292,63559,40872,3082,7295,4723,4303,2203,2933,3725,1538,34
East 12th Avenue,Anchorage,AK,99504,61.211082,-149.77005,3,2,145,232000,15522,91364,10230,101983,5292,63559,40872,3082,7295,4723,4303,2203,2933,3725,1538,34
Creekside Street,Anchorage,AK,99504,61.220966,-149.7407,3,4,260,380000,15522,91364,10230,101983,5292,63559,40872,3082,7295,4723,4303,2203,2933,3725,1538,34
Boundary Avenue,Anchorage,AK,99504,61.22404,-149.73817,2,2,88,145000,15522,91364,10230,101983,5292,63559,40872,3082,7295,4723,4303,2203,2933,3725,1538,34
Debarr Road,Anchorage,AK,99504,61.209858,-149.77034,2,2,100,170000,15522,91364,10230,101983,5292,63559,40872,3082,7295,4723,4303,2203,2933,3725,1538,34
Neighbor Drive,Anchorage,AK,99504,61.21925,-149.74577,2,2,80,199000,15522,91364,10230,101983,5292,63559,40872,3082,7295,4723,4303,2203,2933,3725,1538,34
Astonshire Court,Anchorage,AK,99504,61.199104,-149.73167,3,2,141,249500,15522,91364,10230,101983,5292,63559,40872,3082,7295,4723,4303,2203,2933,3725,1538,34
Grand Larry Street,Anchorage,AK,99504,61.222507,-149.72975,2,2,103,162000,15522,91364,10230,101983,5292,63559,40872,3082,7295,4723,4303,2203,2933,3725,1538,34
Boundary Avenue,Anchorage,AK,99504,61.22404,-149.7378,2,2,87,148250,15522,91364,10230,101983,5292,63559,40872,3082,7295,4723,4303,2203,2933,3725,1538,34
Baxter Road,Anchorage,AK,99504,61.19499,-149.76312,2,2,88,210000,15522,91364,10230,101983,5292,63559,40872,3082,7295,4723,4303,2203,2933,3725,1538,34
Shallow Pool Drive,Anchorage,AK,99504,61.207874,-149.73737,2,2,112,269900,15522,91364,10230,101983,5292,63559,40872,3082,7295,4723,4303,2203,2933,3725,1538,34
Grand Larry Street,Anchorage,AK,99504,61.222507,-149.72975,2,2,103,170000,15522,91364,10230,101983,5292,63559,40872,3082,7295,4723,4303,2203,2933,3725,1538,34
Turf Court,Anchorage,AK,99504,61.208218,-149.7204,2,1,86,175000,15522,91364,10230,101983,5292,63559,40872,3082,7295,4723,4303,2203,2933,3725,1538,34
Boundary Avenue,Anchorage,AK,99504,61.22404,-149.73955,3,2,112,235000,15522,91364,10230,101983,5292,63559,40872,3082,7295,4723,4303,2203,2933,3725,1538,34
Matthew Paul Way,Anchorage,AK,99504,61.222813,-149.7621,3,2,119,215000,15522,91364,10230,101983,5292,63559,40872,3082,7295,4723,4303,2203,2933,3725,1538,34
Shageluk Street,Anchorage,AK,99504,61.22173,-149.76727,4,3,158,437000,15522,91364,10230,101983,5292,63559,40872,3082,7295,4723,4303,2203,2933,3725,1538,34
Shageluk Street,Anchorage,AK,99504,61.221622,-149.7672,4,3,169,431500,15522,91364,10230,101983,5292,63559,40872,3082,7295,4723,4303,2203,2933,3725,1538,34
Shageluk Street,Anchorage,AK,99504,61.221912,-149.7674,4,3,158,437000,15522,91364,10230,101983,5292,63559,40872,3082,7295,4723,4303,2203,2933,3725,1538,34
Shageluk Street,Anchorage,AK,99504,61.22157,-149.76715,4,3,169,431500,15522,91364,10230,101983,5292,63559,40872,3082,7295,4723,4303,2203,2933,3725,1538,34
Shageluk Street,Anchorage,AK,99504,61.221478,-149.76709,3,3,136,410000,15522,91364,10230,101983,5292,63559,40872,3082,7295,4723,4303,2203,2933,3725,1538,34
Shageluk Street,Anchorage,AK,99504,61.221947,-149.76741,4,3,158,437000,15522,91364,10230,101983,5292,63559,40872,3082,7295,4723,4303,2203,2933,3725,1538,34
Shageluk Street,Anchorage,AK,99504,61.221424,-149.76707,3,3,136,410000,15522,91364,10230,101983,5292,63559,40872,3082,7295,4723,4303,2203,2933,3725,1538,34
Burl Court,Anchorage,AK,99504,61.18769,-149.76236,3,2,162,215000,15522,91364,10230,101983,5292,63559,40872,3082,7295,4723,4303,2203,2933,3725,1538,34
Gate Creek Drive,Anchorage,AK,99502,61.151638,-149.99011,3,3,136,399000,8994,118867,6350,134240,2644,77261,26288,1340,4484,4357,3265,1759,801,1276,871,33.3
Gate Creek Drive,Anchorage,AK,99502,61.15155,-149.99243,3,2,136,399000,8994,118867,6350,134240,2644,77261,26288,1340,4484,4357,3265,1759,801,1276,871,33.3
Camila Court,Anchorage,AK,99508,61.21003,-149.79543,3,2,121,240000,12815,80703,7732,88692,5083,61314,39926,3284,6224,4989,4921,1842,2160,2491,816,30.9
Chilkoot Court,Anchorage,AK,99504,61.18292,-149.7744,2,2,92,220000,15522,91364,10230,101983,5292,63559,40872,3082,7295,4723,4303,2203,2933,3725,1538,34
Boniface Parkway,Anchorage,AK,99504,61.18991,-149.7784,2,2,96,200000,15522,91364,10230,101983,5292,63559,40872,3082,7295,4723,4303,2203,2933,3725,1538,34
Reka Drive,Anchorage,AK,99508,61.20454,-149.80534,3,2,103,140000,12815,80703,7732,88692,5083,61314,39926,3284,6224,4989,4921,1842,2160,2491,816,30.9
Alora Loop,Anchorage,AK,99504,61.218346,-149.77725,4,2,191,285000,15522,91364,10230,101983,5292,63559,40872,3082,7295,4723,4303,2203,2933,3725,1538,34
Russian Jack Park,Anchorage,AK,99508,61.20415,-149.79527,2,1,80,99000,12815,80703,7732,88692,5083,61314,39926,3284,6224,4989,4921,1842,2160,2491,816,30.9
Reka Drive,Anchorage,AK,99508,61.204144,-149.79819,2,1,63,115000,12815,80703,7732,88692,5083,61314,39926,3284,6224,4989,4921,1842,2160,2491,816,30.9
McCarrey Street,Anchorage,AK,99508,61.22143,-149.7922,1,1,54,77500,12815,80703,7732,88692,5083,61314,39926,3284,6224,4989,4921,1842,2160,2491,816,30.9
Russian Jack Park,Anchorage,AK,99508,61.204155,-149.79411,3,2,99,115500,12815,80703,7732,88692,5083,61314,39926,3284,6224,4989,4921,1842,2160,2491,816,30.9
East 4th Avenue,Anchorage,AK,99508,61.21818,-149.78189,1,1,56,114900,12815,80703,7732,88692,5083,61314,39926,3284,6224,4989,4921,1842,2160,2491,816,30.9
McCarrey Street,Anchorage,AK,99508,61.222565,-149.79161,1,1,55,52000,12815,80703,7732,88692,5083,61314,39926,3284,6224,4989,4921,1842,2160,2491,816,30.9
Reka Drive,Anchorage,AK,99508,61.20454,-149.80415,2,2,101,135000,12815,80703,7732,88692,5083,61314,39926,3284,6224,4989,4921,1842,2160,2491,816,30.9
Bryn Mawr Court,Anchorage,AK,99508,61.194668,-149.79004,2,2,88,210000,12815,80703,7732,88692,5083,61314,39926,3284,6224,4989,4921,1842,2160,2491,816,30.9
Eastgate Place,Anchorage,AK,99504,61.191364,-149.7776,2,2,96,184900,15522,91364,10230,101983,5292,63559,40872,3082,7295,4723,4303,2203,2933,3725,1538,34
Reka Drive,Anchorage,AK,99508,61.204258,-149.80049,2,1,63,99500,12815,80703,7732,88692,5083,61314,39926,3284,6224,4989,4921,1842,2160,2491,816,30.9
Alora Loop,Anchorage,AK,99504,61.218216,-149.77702,3,2,192,280000,15522,91364,10230,101983,5292,63559,40872,3082,7295,4723,4303,2203,2933,3725,1538,34
Easthaven Circle,Anchorage,AK,99508,61.197002,-149.79266,3,2,136,275000,12815,80703,7732,88692,5083,61314,39926,3284,6224,4989,4921,1842,2160,2491,816,30.9
Russian Jack Park,Anchorage,AK,99508,61.212627,-149.79823,1,1,53,72000,12815,80703,7732,88692,5083,61314,39926,3284,6224,4989,4921,1842,2160,2491,816,30.9
East 38th Court,Anchorage,AK,99504,61.186935,-149.7779,4,3,152,399000,15522,91364,10230,101983,5292,63559,40872,3082,7295,4723,4303,2203,2933,3725,1538,34
Easthaven Circle,Anchorage,AK,99508,61.197063,-149.79266,3,2,125,262000,12815,80703,7732,88692,5083,61314,39926,3284,6224,4989,4921,1842,2160,2491,816,30.9
Reka Drive,Anchorage,AK,99508,61.20454,-149.8041,2,1,101,145000,12815,80703,7732,88692,5083,61314,39926,3284,6224,4989,4921,1842,2160,2491,816,30.9
4th Avenue & Boniface ESE,Anchorage,AK,99504,61.218616,-149.77782,4,2,205,295000,15522,91364,10230,101983,5292,63559,40872,3082,7295,4723,4303,2203,2933,3725,1538,34
Reka Drive,Anchorage,AK,99508,61.20454,-149.80412,3,2,131,165000,12815,80703,7732,88692,5083,61314,39926,3284,6224,4989,4921,1842,2160,2491,816,30.9
Russian Jack Park,Anchorage,AK,99508,61.212627,-149.79823,1,1,50,74900,12815,80703,7732,88692,5083,61314,39926,3284,6224,4989,4921,1842,2160,2491,816,30.9
Reka Drive,Anchorage,AK,99508,61.20454,-149.80528,2,2,106,145000,12815,80703,7732,88692,5083,61314,39926,3284,6224,4989,4921,1842,2160,2491,816,30.9
Glacier Street,Anchorage,AK,99508,61.200497,-149.7869,2,2,96,123950,12815,80703,7732,88692,5083,61314,39926,3284,6224,4989,4921,1842,2160,2491,816,30.9
Reka Drive,Anchorage,AK,99508,61.20415,-149.79498,1,1,61,79000,12815,80703,7732,88692,5083,61314,39926,3284,6224,4989,4921,1842,2160,2491,816,30.9
Russian Jack Park,Anchorage,AK,99508,61.204163,-149.79353,3,2,99,113900,12815,80703,7732,88692,5083,61314,39926,3284,6224,4989,4921,1842,2160,2491,816,30.9
Glacier Street,Anchorage,AK,99508,61.20009,-149.7869,2,2,95,135000,12815,80703,7732,88692,5083,61314,39926,3284,6224,4989,4921,1842,2160,2491,816,30.9
Scenic Way,Anchorage,AK,99501,61.20823,-149.91695,2,2,124,500000,7256,87836,2940,117534,4316,65106,16267,1029,3364,2282,2143,908,1080,1712,733,38
East 43rd Avenue,Anchorage,AK,99508,61.181313,-149.78712,2,2,71,120000,12815,80703,7732,88692,5083,61314,39926,3284,6224,4989,4921,1842,2160,2491,816,30.9
None,Spokane,WA,99202,47.6621,-117.404144,3,2,157,640000,7852,59135,3952,68384,3900,46397,20526,2717,3980,2236,1836,1029,1227,1349,464,31.1
Russian Jack Park,Anchorage,AK,99508,61.204155,-149.79411,3,2,99,113900,12815,80703,7732,88692,5083,61314,39926,3284,6224,4989,4921,1842,2160,2491,816,30.9
West 6th Avenue,Spokane,WA,99204,47.65005,-117.42836,3,2,145,399000,3716,57309,1441,68387,2275,49429,7375,816,1926,826,771,546,512,620,179,33.1
Little Bear Place,Anchorage,AK,99504,61.187347,-149.77711,3,3,154,339900,15522,91364,10230,101983,5292,63559,40872,3082,7295,4723,4303,2203,2933,3725,1538,34
U-MED District,Anchorage,AK,99508,61.184013,-149.78006,2,1,73,139000,12815,80703,7732,88692,5083,61314,39926,3284,6224,4989,4921,1842,2160,2491,816,30.9
Reka Drive,Anchorage,AK,99508,61.204483,-149.8,2,1,63,110000,12815,80703,7732,88692,5083,61314,39926,3284,6224,4989,4921,1842,2160,2491,816,30.9
Reka Drive,Anchorage,AK,99508,61.20454,-149.80531,2,2,106,142000,12815,80703,7732,88692,5083,61314,39926,3284,6224,4989,4921,1842,2160,2491,816,30.9
None,Spokane,WA,99202,47.6621,-117.404144,2,3,279,795000,7852,59135,3952,68384,3900,46397,20526,2717,3980,2236,1836,1029,1227,1349,464,31.1
South Coeur d'Alene Street,Spokane,WA,99201,47.654793,-117.450294,2,2,100,339000,7360,50463,2036,74346,5324,40195,14147,921,3304,2016,1727,1386,875,1834,370,40.3
West 1st Avenue,Spokane,WA,99201,47.65639,-117.418915,1,1,103,350000,7360,50463,2036,74346,5324,40195,14147,921,3304,2016,1727,1386,875,1834,370,40.3
West 6th Avenue,Spokane,WA,99204,47.650726,-117.41546,2,2,102,239900,3716,57309,1441,68387,2275,49429,7375,816,1926,826,771,546,512,620,179,33.1
West Cliff Drive,Spokane,WA,99204,47.645203,-117.42497,2,1,91,260000,3716,57309,1441,68387,2275,49429,7375,816,1926,826,771,546,512,620,179,33.1
West 5th Avenue,Spokane,WA,99204,47.650505,-117.42199,2,2,130,535000,3716,57309,1441,68387,2275,49429,7375,816,1926,826,771,546,512,620,179,33.1
West 6th Avenue,Spokane,WA,99204,47.65005,-117.42836,2,2,107,300000,3716,57309,1441,68387,2275,49429,7375,816,1926,826,771,546,512,620,179,33.1
West Wilson Avenue,Spokane,WA,99201,47.657707,-117.43621,3,2,155,435000,7360,50463,2036,74346,5324,40195,14147,921,3304,2016,1727,1386,875,1834,370,40.3
East Rockwood Boulevard,Spokane,WA,99202,47.645836,-117.4071,1,1,53,105000,7852,59135,3952,68384,3900,46397,20526,2717,3980,2236,1836,1029,1227,1349,464,31.1
East 9th Avenue,Spokane,WA,99202,47.646885,-117.406105,2,1,77,215000,7852,59135,3952,68384,3900,46397,20526,2717,3980,2236,1836,1029,1227,1349,464,31.1
East 9th Avenue,Spokane,WA,99202,47.646885,-117.406105,1,1,65,165000,7852,59135,3952,68384,3900,46397,20526,2717,3980,2236,1836,1029,1227,1349,464,31.1
South Coeur d'Alene Street,Spokane,WA,99201,47.65511,-117.44946,2,2,100,330000,7360,50463,2036,74346,5324,40195,14147,921,3304,2016,1727,1386,875,1834,370,40.3
West Riverside Avenue,Spokane,WA,99201,47.65732,-117.44007,1,2,90,535000,7360,50463,2036,74346,5324,40195,14147,921,3304,2016,1727,1386,875,1834,370,40.3
West 2nd Avenue,Spokane,WA,99201,47.65498,-117.419075,2,2,107,350000,7360,50463,2036,74346,5324,40195,14147,921,3304,2016,1727,1386,875,1834,370,40.3
None,Spokane Valley,WA,99212,47.651283,-117.3238,2,1,75,230000,8786,75877,5268,91315,3518,50706,20395,1180,2979,2523,2105,1463,1808,2299,951,40.6
None,Spokane Valley,WA,99212,47.651737,-117.32111,2,1,72,200000,8786,75877,5268,91315,3518,50706,20395,1180,2979,2523,2105,1463,1808,2299,951,40.6
East 6th Avenue,Spokane Valley,WA,99212,47.65146,-117.32297,3,1,94,269900,8786,75877,5268,91315,3518,50706,20395,1180,2979,2523,2105,1463,1808,2299,951,40.6
East 6th Avenue,Spokane Valley,WA,99212,47.650616,-117.323845,2,1,75,239900,8786,75877,5268,91315,3518,50706,20395,1180,2979,2523,2105,1463,1808,2299,951,40.6
None,Spokane,WA,99212,47.651295,-117.32379,2,2,92,250000,8786,75877,5268,91315,3518,50706,20395,1180,2979,2523,2105,1463,1808,2299,951,40.6
East 6th Avenue,Spokane Valley,WA,99212,47.650616,-117.323845,2,1,75,240000,8786,75877,5268,91315,3518,50706,20395,1180,2979,2523,2105,1463,1808,2299,951,40.6
None,Spokane,WA,99212,47.651283,-117.3238,2,1,75,240000,8786,75877,5268,91315,3518,50706,20395,1180,2979,2523,2105,1463,1808,2299,951,40.6
West 35th Avenue,Anchorage,AK,99517,61.18913,-149.94191,3,2,114,217000,6892,111971,3866,131065,3026,82685,16014,920,2630,2157,1965,1122,1128,1740,523,39.2
Lois Drive,Anchorage,AK,99517,61.193317,-149.92009,1,1,53,105000,6892,111971,3866,131065,3026,82685,16014,920,2630,2157,1965,1122,1128,1740,523,39.2
West 34th Avenue,Anchorage,AK,99517,61.18991,-149.9361,3,2,114,224500,6892,111971,3866,131065,3026,82685,16014,920,2630,2157,1965,1122,1128,1740,523,39.2
West 34th Avenue,Anchorage,AK,99517,61.18975,-149.94154,2,2,114,198000,6892,111971,3866,131065,3026,82685,16014,920,2630,2157,1965,1122,1128,1740,523,39.2
Spengler Street,Richland,WA,99354,46.318623,-119.27652,2,2,128,245000,9354,87239,5778,98495,3576,64698,25433,1393,4691,2878,2453,1321,1642,2093,1262,33.3
Gage Boulevard,Richland,WA,99352,46.2268,-119.25964,2,2,96,219900,12814,110006,8332,130000,4482,64839,34772,2438,4176,4932,4018,2576,2100,3335,1650,38.8
Columbia Point Drive,Richland,WA,99352,46.26207,-119.252754,3,3,207,615000,12814,110006,8332,130000,4482,64839,34772,2438,4176,4932,4018,2576,2100,3335,1650,38.8
Dry Creek Loop,Anchorage,AK,99502,61.140434,-149.98784,3,3,157,410000,8994,118867,6350,134240,2644,77261,26288,1340,4484,4357,3265,1759,801,1276,871,33.3
Dry Creek Loop,Anchorage,AK,99502,61.1409,-149.98631,2,2,133,454900,8994,118867,6350,134240,2644,77261,26288,1340,4484,4357,3265,1759,801,1276,871,33.3
Dry Creek Loop,Anchorage,AK,99502,61.1409,-149.98631,3,3,171,459900,8994,118867,6350,134240,2644,77261,26288,1340,4484,4357,3265,1759,801,1276,871,33.3
Dry Creek Loop,Anchorage,AK,99502,61.1409,-149.98631,3,3,156,389900,8994,118867,6350,134240,2644,77261,26288,1340,4484,4357,3265,1759,801,1276,871,33.3
Dry Creek Loop,Anchorage,AK,99502,61.1409,-149.98631,3,2,158,392900,8994,118867,6350,134240,2644,77261,26288,1340,4484,4357,3265,1759,801,1276,871,33.3
Dry Creek Loop,Anchorage,AK,99502,61.1409,-149.98631,3,3,163,444900,8994,118867,6350,134240,2644,77261,26288,1340,4484,4357,3265,1759,801,1276,871,33.3
Dry Creek Loop,Anchorage,AK,99502,61.1409,-149.98631,3,3,161,489900,8994,118867,6350,134240,2644,77261,26288,1340,4484,4357,3265,1759,801,1276,871,33.3
Columbia Point Drive,Richland,WA,99352,46.262623,-119.25272,4,4,210,545000,12814,110006,8332,130000,4482,64839,34772,2438,4176,4932,4018,2576,2100,3335,1650,38.8
West Mockingbird Lane,Othello,WA,99344,46.796165,-119.20974,2,3,175,295000,5093,69622,4261,72746,832,40424,19198,1294,2318,2459,1744,713,711,1101,715,25.8
North Lacey Street,Spokane,WA,99202,47.668766,-117.370636,4,1,107,249000,7852,59135,3952,68384,3900,46397,20526,2717,3980,2236,1836,1029,1227,1349,464,31.1
West Dimond Boulevard,Anchorage,AK,99502,61.13774,-149.9819,2,2,121,275000,8994,118867,6350,134240,2644,77261,26288,1340,4484,4357,3265,1759,801,1276,871,33.3
Dry Creek Loop,Anchorage,AK,99502,61.140434,-149.98784,3,3,161,465000,8994,118867,6350,134240,2644,77261,26288,1340,4484,4357,3265,1759,801,1276,871,33.3
Dry Creek Loop,Anchorage,AK,99502,61.1409,-149.98631,3,3,163,434900,8994,118867,6350,134240,2644,77261,26288,1340,4484,4357,3265,1759,801,1276,871,33.3
Dry Creek Loop,Anchorage,AK,99502,61.141552,-149.98537,3,3,171,445900,8994,118867,6350,134240,2644,77261,26288,1340,4484,4357,3265,1759,801,1276,871,33.3
Dry Creek Loop,Anchorage,AK,99502,61.1409,-149.98631,3,3,161,474900,8994,118867,6350,134240,2644,77261,26288,1340,4484,4357,3265,1759,801,1276,871,33.3
Dry Creek Loop,Anchorage,AK,99502,61.1409,-149.98631,3,3,180,504900,8994,118867,6350,134240,2644,77261,26288,1340,4484,4357,3265,1759,801,1276,871,33.3
Dry Creek Loop,Anchorage,AK,99502,61.1409,-149.98631,3,3,142,459900,8994,118867,6350,134240,2644,77261,26288,1340,4484,4357,3265,1759,801,1276,871,33.3
Dry Creek Loop,Anchorage,AK,99502,61.1409,-149.98631,3,3,142,439900,8994,118867,6350,134240,2644,77261,26288,1340,4484,4357,3265,1759,801,1276,871,33.3
Southeast Sentry Drive,College Place,WA,99324,46.042503,-118.369156,4,3,229,407000,3865,74311,2434,91581,1431,44381,10045,1429,1004,1086,970,338,641,1183,459,34.4
North Crestline Street,Spokane,WA,99207,47.678432,-117.37866,1,1,66,214900,12623,51883,6565,56721,6058,41592,32732,3134,6786,4286,3702,1640,1663,2349,756,31.9
South Rustle Street,Spokane,WA,99224,47.643303,-117.47179,3,2,156,355000,9314,94741,6002,116659,3312,52296,23705,1289,3562,3140,3174,1449,1711,2348,962,39.2
West 30th Avenue,Kennewick,WA,99337,46.18161,-119.16365,3,2,175,470000,11094,92417,8621,99169,2473,59551,32393,2152,3439,4028,3940,2294,2216,3479,1405,38.7
Catherine Street,Walla Walla,WA,99362,46.06371,-118.33333,2,1,81,239000,15734,78762,9901,97625,5833,43440,42706,3300,5602,5159,4853,2586,2814,4530,2124,39.2
Village Way,Walla Walla,WA,99362,46.046284,-118.34734,2,2,110,339900,15734,78762,9901,97625,5833,43440,42706,3300,5602,5159,4853,2586,2814,4530,2124,39.2
East 32nd Avenue,Spokane,WA,99223,47.625446,-117.36845,2,2,106,219000,13950,106385,8825,135527,5125,52676,34013,1463,4324,4392,3433,2169,3068,3894,1817,41.2
South Regal Street,Spokane,WA,99223,47.618195,-117.36876,2,2,90,275000,13950,106385,8825,135527,5125,52676,34013,1463,4324,4392,3433,2169,3068,3894,1817,41.2
North Lemon Lane,Nine Mile Falls,WA,99026,47.733696,-117.507355,2,2,125,365000,3241,93457,2515,101363,726,51633,8521,332,548,696,1377,784,574,1485,729,50.2
South Regal Street,Spokane,WA,99223,47.61898,-117.36877,2,1,75,180000,13950,106385,8825,135527,5125,52676,34013,1463,4324,4392,3433,2169,3068,3894,1817,41.2
North Country Club Drive,Deer Park,WA,99006,47.96525,-117.44946,3,2,187,599990,5063,72853,3515,86084,1548,40028,13649,651,1377,1682,1732,985,1183,1423,890,42.3
None,Ellensburg,WA,98926,46.98625,-120.54032,3,2,168,310000,13851,75795,7468,99680,6383,46409,32559,5834,4257,3243,2845,1530,1869,2789,1349,29.3
North Country Club Drive,Deer Park,WA,99006,47.96525,-117.44946,3,2,170,499990,5063,72853,3515,86084,1548,40028,13649,651,1377,1682,1732,985,1183,1423,890,42.3
North Country Club Drive,Deer Park,WA,99006,47.96646,-117.45029,3,2,187,599990,5063,72853,3515,86084,1548,40028,13649,651,1377,1682,1732,985,1183,1423,890,42.3
North Country Club Drive,Deer Park,WA,99006,47.96646,-117.45029,3,2,166,487990,5063,72853,3515,86084,1548,40028,13649,651,1377,1682,1732,985,1183,1423,890,42.3
North Country Club Drive,Deer Park,WA,99006,47.96646,-117.45029,3,2,170,495990,5063,72853,3515,86084,1548,40028,13649,651,1377,1682,1732,985,1183,1423,890,42.3
North Country Club Drive,Deer Park,WA,99006,47.96646,-117.45029,3,2,166,485990,5063,72853,3515,86084,1548,40028,13649,651,1377,1682,1732,985,1183,1423,890,42.3
Southern Avenue,Selah,WA,98942,46.643208,-120.54077,3,3,165,389000,6936,88152,4950,93877,1986,48032,17949,1082,2537,2123,1989,1380,1340,1775,655,37.3
South 43rd Avenue,Yakima,WA,98908,46.582535,-120.56545,3,2,117,250000,14444,86599,9799,97941,4645,59642,38936,2336,4007,4963,4285,2194,2304,4651,2164,39.6
Barge Street,Yakima,WA,98908,46.598965,-120.587135,2,3,132,229000,14444,86599,9799,97941,4645,59642,38936,2336,4007,4963,4285,2194,2304,4651,2164,39.6
Peach Tree Lane,Yakima,WA,98908,46.597008,-120.576324,2,2,88,259000,14444,86599,9799,97941,4645,59642,38936,2336,4007,4963,4285,2194,2304,4651,2164,39.6
Southeast 157th Avenue,Vancouver,WA,98684,45.61767,-122.5123,3,2,104,295000,11566,88526,8033,94319,3533,68035,34394,2391,5198,4431,4379,2198,1771,3168,1298,36.1
North 43rd Avenue,Yakima,WA,98908,46.60879,-120.56593,2,2,164,359000,14444,86599,9799,97941,4645,59642,38936,2336,4007,4963,4285,2194,2304,4651,2164,39.6
Northeast Regents Drive,Vancouver,WA,98684,45.638992,-122.53327,3,3,235,419000,11566,88526,8033,94319,3533,68035,34394,2391,5198,4431,4379,2198,1771,3168,1298,36.1
Northeast Oak Street,Pullman,WA,99163,46.731533,-117.17079,3,4,176,530000,12864,59197,5014,97071,7850,33350,34815,10026,5442,3089,1746,886,812,1414,689,22.6
Terre View and Merman,Pullman,WA,99163,46.74308,-117.15479,2,2,85,180000,12864,59197,5014,97071,7850,33350,34815,10026,5442,3089,1746,886,812,1414,689,22.6
North 72nd Avenue,Yakima,WA,98908,46.597622,-120.60395,2,2,135,290000,14444,86599,9799,97941,4645,59642,38936,2336,4007,4963,4285,2194,2304,4651,2164,39.6
Madera Way,Yakima,WA,98908,46.608707,-120.57422,2,2,117,265000,14444,86599,9799,97941,4645,59642,38936,2336,4007,4963,4285,2194,2304,4651,2164,39.6
North 50th Avenue,Yakima,WA,98908,46.608494,-120.57467,2,2,108,269000,14444,86599,9799,97941,4645,59642,38936,2336,4007,4963,4285,2194,2304,4651,2164,39.6
A Street,Washougal,WA,98671,45.576275,-122.33166,2,1,74,215000,8423,116115,6246,128098,2177,76063,23782,861,3077,3160,3590,1691,1648,2835,675,40.8
North Mount Spokane Park Drive,Mead,WA,99021,47.919075,-117.09251,2,2,81,289900,3441,91986,2662,108156,779,32720,10139,294,922,1356,1254,694,784,1490,452,43.2
Northwest Columbia Avenue,East Wenatchee,WA,98802,47.44517,-120.306435,3,2,135,470000,11530,100063,8565,103715,2965,76466,31480,1855,3648,4027,3573,2088,1726,3326,1565,38
Castlerock Avenue,Wenatchee,WA,98801,47.420082,-120.3336,2,2,115,399900,16754,83854,10906,97898,5848,52587,44861,2829,6562,5449,4639,2733,2949,3935,1725,35.6
Northwest Columbia Avenue,East Wenatchee,WA,98802,47.44517,-120.306435,3,3,139,449900,11530,100063,8565,103715,2965,76466,31480,1855,3648,4027,3573,2088,1726,3326,1565,38
Castlerock Avenue,Wenatchee,WA,98801,47.419415,-120.33357,2,2,115,399900,16754,83854,10906,97898,5848,52587,44861,2829,6562,5449,4639,2733,2949,3935,1725,35.6
North Elliott Avenue,Wenatchee,WA,98801,47.420177,-120.33644,2,2,129,420000,16754,83854,10906,97898,5848,52587,44861,2829,6562,5449,4639,2733,2949,3935,1725,35.6
Southeast Baypoint Drive,Vancouver,WA,98683,45.602173,-122.50961,2,2,99,395000,13361,94251,8130,106449,5231,70510,31969,1542,4274,3917,4188,1993,2317,3603,1806,43.2
Southeast Baypoint Drive,Vancouver,WA,98683,45.60408,-122.509476,2,2,90,349000,13361,94251,8130,106449,5231,70510,31969,1542,4274,3917,4188,1993,2317,3603,1806,43.2
Southeast 23rd Drive,Vancouver,WA,98683,45.604362,-122.49558,3,3,160,407900,13361,94251,8130,106449,5231,70510,31969,1542,4274,3917,4188,1993,2317,3603,1806,43.2
Southeast 121st Avenue,Vancouver,WA,98683,45.616734,-122.548195,2,2,83,285000,13361,94251,8130,106449,5231,70510,31969,1542,4274,3917,4188,1993,2317,3603,1806,43.2
Northeast 54th Street,Vancouver,WA,98662,45.66224,-122.58076,2,2,102,335000,12479,84052,7973,94641,4506,57717,36573,2721,5231,5291,4486,2276,1982,2992,1338,37.5
Northeast Loowit Loop,Vancouver,WA,98662,45.65651,-122.59269,2,2,103,350000,12479,84052,7973,94641,4506,57717,36573,2721,5231,5291,4486,2276,1982,2992,1338,37.5
Northeast 44th Way,Vancouver,WA,98662,45.65408,-122.59831,2,1,73,289900,12479,84052,7973,94641,4506,57717,36573,2721,5231,5291,4486,2276,1982,2992,1338,37.5
Northeast Royal View Avenue,Vancouver,WA,98662,45.649307,-122.58368,3,3,159,419000,12479,84052,7973,94641,4506,57717,36573,2721,5231,5291,4486,2276,1982,2992,1338,37.5
North Mount Spokane Park Drive,Mead,WA,99021,47.91908,-117.092514,2,2,67,225000,3441,91986,2662,108156,779,32720,10139,294,922,1356,1254,694,784,1490,452,43.2
Ocean Shores Boulevard Northwest,Ocean Shores,WA,98569,47.003952,-124.16626,1,1,75,72999,3413,55776,2094,65421,1319,39398,6826,0,394,483,884,426,1327,1944,618,62.9
West Marina Drive,Moses Lake,WA,98837,47.1048,-119.31573,2,2,96,220000,15238,75311,10267,85067,4971,48252,45729,3291,6159,5368,5508,2778,2662,4024,2028,35.2
Highview Drive,Yakima,WA,98902,46.60689,-120.557396,3,3,193,277000,16484,61669,10374,68869,6110,45072,45913,3402,6544,5811,5350,2439,2338,3415,1847,34
Ocean Shores Boulevard Northwest,Ocean Shores,WA,98569,47.015083,-124.16643,1,1,83,239000,3413,55776,2094,65421,1319,39398,6826,0,394,483,884,426,1327,1944,618,62.9
Ocean Shores Boulevard Southwest,Ocean Shores,WA,98569,46.93456,-124.17233,1,1,72,249000,3413,55776,2094,65421,1319,39398,6826,0,394,483,884,426,1327,1944,618,62.9
Westshore Drive Northeast,Moses Lake,WA,98837,47.114075,-119.34049,3,2,145,327000,15238,75311,10267,85067,4971,48252,45729,3291,6159,5368,5508,2778,2662,4024,2028,35.2
Englewood Avenue,Yakima,WA,98902,46.60681,-120.54943,3,3,169,260000,16484,61669,10374,68869,6110,45072,45913,3402,6544,5811,5350,2439,2338,3415,1847,34
Icicle Road,Leavenworth,WA,98826,47.58735,-120.67413,2,2,99,525000,3273,82822,2224,99918,1049,43595,7505,172,677,816,808,583,775,1672,500,55.6
West Woodin Avenue,Chelan,WA,98816,47.83862,-120.023224,2,2,64,499000,2295,78175,1456,89563,839,57592,6219,476,428,744,751,580,165,1135,449,46
Lake Chelan Shores Drive,Chelan,WA,98816,47.854034,-120.061295,2,2,95,625000,2295,78175,1456,89563,839,57592,6219,476,428,744,751,580,165,1135,449,46
Cliffe Pointe Road Northwest,Quincy,WA,98848,47.09307,-119.99906,1,1,53,525000,3439,77930,2838,82835,601,50076,12782,901,2218,1297,1089,571,501,793,425,27.3
West Woodin Avenue,Chelan,WA,98816,47.83466,-120.04717,3,2,112,389900,2295,78175,1456,89563,839,57592,6219,476,428,744,751,580,165,1135,449,46
East Ocean Shores Boulevard Southwest,Ocean Shores,WA,98569,46.92921,-124.17246,2,2,111,484900,3413,55776,2094,65421,1319,39398,6826,0,394,483,884,426,1327,1944,618,62.9
Crescent Bar Road Northwest,Quincy,WA,98848,47.214153,-119.99314,2,2,73,210000,3439,77930,2838,82835,601,50076,12782,901,2218,1297,1089,571,501,793,425,27.3
Ocean Shores Boulevard Southwest,Ocean Shores,WA,98569,46.936085,-124.17241,1,1,72,199900,3413,55776,2094,65421,1319,39398,6826,0,394,483,884,426,1327,1944,618,62.9
South 3rd Street,Chelan,WA,98816,47.837273,-120.02262,2,1,72,380000,2295,78175,1456,89563,839,57592,6219,476,428,744,751,580,165,1135,449,46
Suncadia Trail,Cle Elum,WA,98922,47.20958,-121.01972,1,1,81,495000,3242,82658,2059,96615,1183,54492,7162,335,532,743,1187,638,805,1031,516,50.8
West Woodin Avenue,Chelan,WA,98816,47.83861,-120.02317,3,2,128,889000,2295,78175,1456,89563,839,57592,6219,476,428,744,751,580,165,1135,449,46
Suncadia Trail,Cle Elum,WA,98922,47.20958,-121.01972,2,2,123,875000,3242,82658,2059,96615,1183,54492,7162,335,532,743,1187,638,805,1031,516,50.8
Cedar Court Southwest,Ocean Shores,WA,98569,46.94921,-124.17053,3,2,130,349900,3413,55776,2094,65421,1319,39398,6826,0,394,483,884,426,1327,1944,618,62.9
Wawona Avenue Southwest,Ocean Shores,WA,98569,46.95008,-124.14158,2,1,69,299950,3413,55776,2094,65421,1319,39398,6826,0,394,483,884,426,1327,1944,618,62.9
West Ocean Avenue,Westport,WA,98595,46.886696,-124.11756,1,1,79,399950,1172,65509,757,75853,415,42157,2698,160,423,175,281,171,351,545,109,53.6
West Ocean Avenue,Westport,WA,98595,46.886696,-124.11756,2,2,106,350000,1172,65509,757,75853,415,42157,2698,160,423,175,281,171,351,545,109,53.6
Suncadia Trail,Cle Elum,WA,98922,47.20958,-121.01972,1,1,81,490000,3242,82658,2059,96615,1183,54492,7162,335,532,743,1187,638,805,1031,516,50.8
Ocean Shores Boulevard Northwest,Ocean Shores,WA,98569,47.003407,-124.16625,1,1,62,60000,3413,55776,2094,65421,1319,39398,6826,0,394,483,884,426,1327,1944,618,62.9
Occidental Road,Yakima,WA,98903,46.563217,-120.6313,2,2,156,475000,5711,72665,3976,83758,1735,42801,17577,779,2451,2202,1689,1370,887,1364,850,35.5
Northeast Salmon Creek Avenue,Vancouver,WA,98686,45.715954,-122.64058,1,1,62,224900,7393,101021,5323,115025,2070,60616,20547,1218,2027,2955,3297,937,1177,2347,984,41.5
Northeast 116th Street,Vancouver,WA,98686,45.70472,-122.65332,2,2,103,224900,7393,101021,5323,115025,2070,60616,20547,1218,2027,2955,3297,937,1177,2347,984,41.5
Northeast Salmon Creek Avenue,Vancouver,WA,98686,45.71566,-122.64061,2,3,108,300000,7393,101021,5323,115025,2070,60616,20547,1218,2027,2955,3297,937,1177,2347,984,41.5
Cleveland Avenue Southeast,Olympia,WA,98501,47.017353,-122.89915,2,2,122,205000,17697,93545,11072,110860,6625,60659,46170,2108,6583,6491,6060,2810,2817,4473,2030,38.9
Cleveland Avenue Southeast,Olympia,WA,98501,47.017353,-122.89915,2,2,121,201000,17697,93545,11072,110860,6625,60659,46170,2108,6583,6491,6060,2810,2817,4473,2030,38.9
Cleveland Avenue Southeast,Olympia,WA,98501,47.017353,-122.89915,1,2,115,169000,17697,93545,11072,110860,6625,60659,46170,2108,6583,6491,6060,2810,2817,4473,2030,38.9
Cleveland Avenue Southeast,Olympia,WA,98501,47.017353,-122.89915,2,2,121,205000,17697,93545,11072,110860,6625,60659,46170,2108,6583,6491,6060,2810,2817,4473,2030,38.9
Cleveland Avenue Southeast,Olympia,WA,98501,47.017353,-122.89915,2,1,113,178000,17697,93545,11072,110860,6625,60659,46170,2108,6583,6491,6060,2810,2817,4473,2030,38.9
Northwest 8th Avenue,Vancouver,WA,98685,45.71703,-122.67912,2,1,90,290000,11502,126213,8394,143058,3108,77542,30199,1436,2540,3995,4417,2563,2224,3480,1457,44.2
Northwest 134th Street,Vancouver,WA,98685,45.717667,-122.682526,4,2,176,319900,11502,126213,8394,143058,3108,77542,30199,1436,2540,3995,4417,2563,2224,3480,1457,44.2
Kelly Road,Vancouver,WA,98665,45.68163,-122.69237,2,1,76,195000,10566,85956,7231,93996,3335,62561,27175,1961,3791,3903,3726,1583,1721,2549,1106,39.2
Kelly Road,Vancouver,WA,98665,45.68163,-122.69237,2,1,76,199900,10566,85956,7231,93996,3335,62561,27175,1961,3791,3903,3726,1583,1721,2549,1106,39.2
Northeast 17th Avenue,Vancouver,WA,98665,45.666855,-122.65515,2,2,98,249000,10566,85956,7231,93996,3335,62561,27175,1961,3791,3903,3726,1583,1721,2549,1106,39.2
North Shore Court,Manson,WA,98831,47.886845,-120.15437,2,2,71,317500,1334,69228,879,78428,455,49785,3691,219,393,294,456,305,293,543,246,47.2
Northeast 109th Avenue,Vancouver,WA,98682,45.6497,-122.56228,2,2,87,249000,22017,92051,16017,100713,6000,58799,66229,4415,9891,9969,8413,3577,3810,5245,1450,34.9
Northeast 17th Avenue,Vancouver,WA,98665,45.666855,-122.65515,2,2,95,239900,10566,85956,7231,93996,3335,62561,27175,1961,3791,3903,3726,1583,1721,2549,1106,39.2
Northeast 16th Avenue,Vancouver,WA,98665,45.67487,-122.65559,2,1,88,214900,10566,85956,7231,93996,3335,62561,27175,1961,3791,3903,3726,1583,1721,2549,1106,39.2
Northeast 85th Street,Vancouver,WA,98665,45.6845,-122.66738,2,2,122,260000,10566,85956,7231,93996,3335,62561,27175,1961,3791,3903,3726,1583,1721,2549,1106,39.2
Evergreen Park Drive Southwest,Olympia,WA,98502,47.031933,-122.91927,3,2,162,410000,13914,93287,8515,112429,5399,57416,35954,2464,5955,5248,3742,2222,2239,3528,1918,37.7
9th at Black Lake,Olympia,WA,98502,47.039978,-122.93089,2,2,83,249000,13914,93287,8515,112429,5399,57416,35954,2464,5955,5248,3742,2222,2239,3528,1918,37.7
Southeast 17th Circle,Vancouver,WA,98664,45.610504,-122.560265,1,1,60,299900,9174,86493,5996,93258,3178,67877,23141,1110,3112,3176,2880,1259,1480,2597,1259,40
Southeast 17th Circle,Vancouver,WA,98664,45.610504,-122.560265,2,2,96,315500,9174,86493,5996,93258,3178,67877,23141,1110,3112,3176,2880,1259,1480,2597,1259,40
Southeast 17th Circle,Vancouver,WA,98664,45.610504,-122.560265,2,2,93,320000,9174,86493,5996,93258,3178,67877,23141,1110,3112,3176,2880,1259,1480,2597,1259,40
McCormick Street Southeast,Olympia,WA,98501,47.042458,-122.87953,2,2,127,432000,17697,93545,11072,110860,6625,60659,46170,2108,6583,6491,6060,2810,2817,4473,2030,38.9
Evergreen Park Drive Southwest,Olympia,WA,98502,47.030804,-122.915215,2,2,110,319000,13914,93287,8515,112429,5399,57416,35954,2464,5955,5248,3742,2222,2239,3528,1918,37.7
Woodard Avenue Northwest,Olympia,WA,98502,47.0592,-122.92214,4,2,168,410000,13914,93287,8515,112429,5399,57416,35954,2464,5955,5248,3742,2222,2239,3528,1918,37.7
Evergreen Park Drive Southwest,Olympia,WA,98502,47.030804,-122.915215,2,2,151,569900,13914,93287,8515,112429,5399,57416,35954,2464,5955,5248,3742,2222,2239,3528,1918,37.7
East Bay Drive Northeast,Olympia,WA,98506,47.050713,-122.892204,2,2,136,349900,8443,90434,4728,113839,3715,56049,18232,673,2018,2766,2309,1174,1384,3004,1214,47.7
Evergreen Park Drive Southwest,Olympia,WA,98502,47.030804,-122.915215,2,2,95,340000,13914,93287,8515,112429,5399,57416,35954,2464,5955,5248,3742,2222,2239,3528,1918,37.7
East Bay Drive Northeast,Olympia,WA,98506,47.05204,-122.89232,2,2,140,349900,8443,90434,4728,113839,3715,56049,18232,673,2018,2766,2309,1174,1384,3004,1214,47.7
Gravelly Lake Drive Southwest,Tacoma,WA,98499,47.161976,-122.52094,2,1,94,245000,13123,66847,7984,75504,5139,45537,33589,2879,6278,4416,3065,2102,2147,2839,1458,34.5
52nd Avenue West,University Place,WA,98467,47.19731,-122.50716,4,2,166,435000,6113,97330,4377,113304,1736,54399,15382,1038,2026,1822,1651,819,1274,1550,979,39.5
Southeast 17th Circle,Vancouver,WA,98664,45.610504,-122.560265,2,2,92,325000,9174,86493,5996,93258,3178,67877,23141,1110,3112,3176,2880,1259,1480,2597,1259,40
Ruby Drive Southwest,Lakewood,WA,98498,47.195255,-122.53895,2,2,111,230000,11400,87719,7004,101640,4396,59174,29062,2302,4815,2922,3679,1634,2113,3350,1309,38.9
Northeast 21st Street,Vancouver,WA,98664,45.637363,-122.56567,2,2,94,287450,9174,86493,5996,93258,3178,67877,23141,1110,3112,3176,2880,1259,1480,2597,1259,40
Northeast 164th Street,Ridgefield,WA,98642,45.741463,-122.6384,3,3,176,325000,7419,117979,5698,133635,1721,62866,22934,790,2637,2951,2859,1500,1706,2617,1061,40.4
Avondale Road Southwest,Lakewood,WA,98499,47.16325,-122.522705,3,3,176,460000,13123,66847,7984,75504,5139,45537,33589,2879,6278,4416,3065,2102,2147,2839,1458,34.5
West Columbia Way,Vancouver,WA,98660,45.62373,-122.678055,1,1,93,975000,5492,76699,2384,107421,3108,52647,12917,832,2592,1970,1565,684,853,1366,523,38.8
Daniels Street,Vancouver,WA,98660,45.627636,-122.67492,2,2,94,480000,5492,76699,2384,107421,3108,52647,12917,832,2592,1970,1565,684,853,1366,523,38.8
Washington Street,Vancouver,WA,98660,45.62646,-122.6733,1,1,61,263000,5492,76699,2384,107421,3108,52647,12917,832,2592,1970,1565,684,853,1366,523,38.8
West 8th Street,Vancouver,WA,98660,45.627605,-122.67471,2,2,94,539900,5492,76699,2384,107421,3108,52647,12917,832,2592,1970,1565,684,853,1366,523,38.8
26th Street Northwest,Long Beach,WA,98631,46.37092,-124.05477,3,2,92,279500,1543,54011,749,66695,794,40674,3458,110,246,355,304,166,334,852,268,54.4
None,Long Beach,WA,98631,46.36154,-124.06443,1,2,63,55000,1543,54011,749,66695,794,40674,3458,110,246,355,304,166,334,852,268,54.4
14th Street Northwest,Long Beach,WA,98631,46.36255,-124.05791,1,2,63,55000,1543,54011,749,66695,794,40674,3458,110,246,355,304,166,334,852,268,54.4
Boulevard Avenue,Long Beach,WA,98631,46.341473,-124.05692,2,2,143,359000,1543,54011,749,66695,794,40674,3458,110,246,355,304,166,334,852,268,54.4
14th Street Northwest,Long Beach,WA,98631,46.36255,-124.05791,1,2,63,50000,1543,54011,749,66695,794,40674,3458,110,246,355,304,166,334,852,268,54.4
Pacific Highway Southwest,Lakewood,WA,98499,47.138657,-122.5245,2,1,90,275000,13123,66847,7984,75504,5139,45537,33589,2879,6278,4416,3065,2102,2147,2839,1458,34.5
26th Street Northwest,Long Beach,WA,98631,46.37118,-124.05611,3,2,89,260000,1543,54011,749,66695,794,40674,3458,110,246,355,304,166,334,852,268,54.4
97th Avenue Court West,University Place,WA,98467,47.212776,-122.56671,2,2,99,310000,6113,97330,4377,113304,1736,54399,15382,1038,2026,1822,1651,819,1274,1550,979,39.5
Tacoma Avenue South,Tacoma,WA,98402,47.24835,-122.44315,2,2,97,399000,3737,70235,909,98985,2828,60800,6805,640,2110,888,853,428,362,585,512,36.3
West Columbia Way,Vancouver,WA,98660,45.623528,-122.67792,1,1,104,929000,5492,76699,2384,107421,3108,52647,12917,832,2592,1970,1565,684,853,1366,523,38.8
6th Avenue,Tacoma,WA,98405,47.257465,-122.44827,1,1,69,275000,9882,72268,4938,88328,4944,51936,24053,1760,4503,3888,3344,1504,1600,1898,696,38.4
South I Street,Tacoma,WA,98405,47.24326,-122.4465,2,1,67,250000,9882,72268,4938,88328,4944,51936,24053,1760,4503,3888,3344,1504,1600,1898,696,38.4
Dock Street,Tacoma,WA,98402,47.246605,-122.4343,2,2,111,749000,3737,70235,909,98985,2828,60800,6805,640,2110,888,853,428,362,585,512,36.3
North 30th Street,Tacoma,WA,98403,47.2745,-122.46276,2,2,89,499000,4197,83587,1543,132030,2654,54572,8441,555,1934,1344,904,458,451,1011,168,35.8
South 41st Street,Tacoma,WA,98409,47.21977,-122.469345,2,2,95,350000,11116,71478,6429,77267,4687,53759,28403,3088,5477,4102,3320,1302,1298,1547,609,31
North I Street,Tacoma,WA,98403,47.26694,-122.46506,2,2,95,500000,4197,83587,1543,132030,2654,54572,8441,555,1934,1344,904,458,451,1011,168,35.8
East Evergreen Boulevard,Vancouver,WA,98661,45.618507,-122.61649,2,2,128,328000,19463,81396,11488,91650,7975,60015,49822,3591,8389,6763,5456,3869,2705,4048,1664,35.2
Willows Road,Seaview,WA,98644,46.322433,-124.058716,2,2,110,405000,278,42985,142,67015,136,17895,628,0,0,21,77,14,92,176,126,71.4
Flora Drive,Fircrest,WA,98466,47.220257,-122.52615,3,3,156,420000,11924,98706,7552,117085,4372,63397,29989,2314,4372,3615,3974,1406,1739,2718,1538,37.1
Northeast 43rd Street,Vancouver,WA,98661,45.653183,-122.60058,1,1,57,210000,19463,81396,11488,91650,7975,60015,49822,3591,8389,6763,5456,3869,2705,4048,1664,35.2
North Hayden Island Drive,Portland,OR,97217,45.61131,-122.67241,2,2,158,575000,14838,103943,7550,117395,7288,85843,35049,1719,8469,7167,4857,1698,1763,2979,916,37.7
North Hayden Bay Drive,Portland,OR,97217,45.610104,-122.66878,2,1,83,275000,14838,103943,7550,117395,7288,85843,35049,1719,8469,7167,4857,1698,1763,2979,916,37.7
North Hayden Bay Drive,Portland,OR,97217,45.61018,-122.66861,2,1,78,425000,14838,103943,7550,117395,7288,85843,35049,1719,8469,7167,4857,1698,1763,2979,916,37.7
North Hayden Island Drive,Portland,OR,97217,45.61131,-122.67241,2,2,186,589000,14838,103943,7550,117395,7288,85843,35049,1719,8469,7167,4857,1698,1763,2979,916,37.7
North Hayden Bay Drive,Portland,OR,97217,45.610447,-122.670784,2,2,98,327000,14838,103943,7550,117395,7288,85843,35049,1719,8469,7167,4857,1698,1763,2979,916,37.7
North Hayden Island Drive,Portland,OR,97217,45.61131,-122.67241,3,2,179,525000,14838,103943,7550,117395,7288,85843,35049,1719,8469,7167,4857,1698,1763,2979,916,37.7
North Hayden Bay Drive,Portland,OR,97217,45.60971,-122.67321,2,2,187,429000,14838,103943,7550,117395,7288,85843,35049,1719,8469,7167,4857,1698,1763,2979,916,37.7
Tacoma Avenue South,Tacoma,WA,98402,47.24835,-122.44315,1,1,92,385000,3737,70235,909,98985,2828,60800,6805,640,2110,888,853,428,362,585,512,36.3
Northeast 68th Avenue,Vancouver,WA,98661,45.66129,-122.60333,3,2,113,245000,19463,81396,11488,91650,7975,60015,49822,3591,8389,6763,5456,3869,2705,4048,1664,35.2
Broadway,Tacoma,WA,98402,47.26441,-122.44585,2,2,101,515500,3737,70235,909,98985,2828,60800,6805,640,2110,888,853,428,362,585,512,36.3
South Yakima Avenue,Tacoma,WA,98405,47.243984,-122.44601,1,1,50,250000,9882,72268,4938,88328,4944,51936,24053,1760,4503,3888,3344,1504,1600,1898,696,38.4
Dock Street,Tacoma,WA,98402,47.246605,-122.4343,1,2,86,400000,3737,70235,909,98985,2828,60800,6805,640,2110,888,853,428,362,585,512,36.3
Pacific Avenue,Tacoma,WA,98418,47.231365,-122.433426,2,2,120,349950,4047,73252,2342,74570,1705,66261,9813,428,2254,1493,1054,664,483,1116,305,37.3
Pacific Avenue,Tacoma,WA,98418,47.231365,-122.433426,2,2,119,385000,4047,73252,2342,74570,1705,66261,9813,428,2254,1493,1054,664,483,1116,305,37.3
None,University Place,WA,98466,47.21428,-122.5666,2,2,79,210000,11924,98706,7552,117085,4372,63397,29989,2314,4372,3615,3974,1406,1739,2718,1538,37.1
Northeast 43rd Street,Vancouver,WA,98661,45.65318,-122.60058,2,2,112,229500,19463,81396,11488,91650,7975,60015,49822,3591,8389,6763,5456,3869,2705,4048,1664,35.2
Broadway,Tacoma,WA,98402,47.26441,-122.44585,2,2,107,478650,3737,70235,909,98985,2828,60800,6805,640,2110,888,853,428,362,585,512,36.3
Pacific Avenue,Tacoma,WA,98418,47.231365,-122.433426,2,2,119,333000,4047,73252,2342,74570,1705,66261,9813,428,2254,1493,1054,664,483,1116,305,37.3
North D Street,Tacoma,WA,98403,47.268703,-122.452774,2,2,102,485000,4197,83587,1543,132030,2654,54572,8441,555,1934,1344,904,458,451,1011,168,35.8
Pacific Avenue,Tacoma,WA,98418,47.231365,-122.433426,2,2,119,399000,4047,73252,2342,74570,1705,66261,9813,428,2254,1493,1054,664,483,1116,305,37.3
Tacoma Avenue South,Tacoma,WA,98402,47.24835,-122.44315,2,2,95,399000,3737,70235,909,98985,2828,60800,6805,640,2110,888,853,428,362,585,512,36.3
Pacific Avenue,Tacoma,WA,98418,47.231365,-122.433426,3,2,158,449000,4047,73252,2342,74570,1705,66261,9813,428,2254,1493,1054,664,483,1116,305,37.3
Tacoma Avenue South,Tacoma,WA,98402,47.24835,-122.44315,1,1,56,314990,3737,70235,909,98985,2828,60800,6805,640,2110,888,853,428,362,585,512,36.3
Broadway,Tacoma,WA,98402,47.25995,-122.44229,2,3,169,840000,3737,70235,909,98985,2828,60800,6805,640,2110,888,853,428,362,585,512,36.3
North 30th Street,Tacoma,WA,98403,47.27447,-122.46236,2,2,145,599950,4197,83587,1543,132030,2654,54572,8441,555,1934,1344,904,458,451,1011,168,35.8
North D Street,Tacoma,WA,98403,47.267754,-122.45178,2,2,111,775000,4197,83587,1543,132030,2654,54572,8441,555,1934,1344,904,458,451,1011,168,35.8
East 32nd Street,Tacoma,WA,98404,47.232506,-122.42847,1,2,104,359000,12534,69682,8609,72186,3925,54079,35357,2180,5389,5520,4006,1803,2080,2709,821,34.6
East Cliff Avenue,Tacoma,WA,98402,47.252716,-122.43645,1,1,59,329990,3737,70235,909,98985,2828,60800,6805,640,2110,888,853,428,362,585,512,36.3
Court C,Tacoma,WA,98402,47.26221,-122.44478,1,1,52,249999,3737,70235,909,98985,2828,60800,6805,640,2110,888,853,428,362,585,512,36.3
101st Street East,Tacoma,WA,98445,47.16494,-122.41037,3,3,133,395000,11546,81364,8383,88309,3163,52599,32304,2094,4928,4038,3613,2141,2151,3504,1417,38.1
Tacoma Avenue South,Tacoma,WA,98402,47.24835,-122.44315,1,1,73,359950,3737,70235,909,98985,2828,60800,6805,640,2110,888,853,428,362,585,512,36.3
Dock Street,Tacoma,WA,98402,47.24877,-122.434166,2,2,132,825000,3737,70235,909,98985,2828,60800,6805,640,2110,888,853,428,362,585,512,36.3
Willow Pointe Loop,Longview,WA,98632,46.163994,-123.02463,2,2,130,345000,20842,70972,12681,87224,8161,40721,50944,2966,6612,6313,5499,3177,3675,5848,2839,39.6
River Road,Longview,WA,98632,46.134502,-122.9203,2,3,161,359000,20842,70972,12681,87224,8161,40721,50944,2966,6612,6313,5499,3177,3675,5848,2839,39.6
Crescent Drive,Kelso,WA,98626,46.146713,-122.88096,3,2,135,275000,9991,73049,7006,83820,2985,41903,26579,1337,3565,3223,3484,1987,2066,2509,868,40.2
North Jantzen Beach Avenue,Portland,OR,97217,45.610016,-122.67487,2,2,104,255000,14838,103943,7550,117395,7288,85843,35049,1719,8469,7167,4857,1698,1763,2979,916,37.7
North Hayden Bay Drive,Portland,OR,97217,45.61046,-122.67035,2,2,95,345777,14838,103943,7550,117395,7288,85843,35049,1719,8469,7167,4857,1698,1763,2979,916,37.7
North Hayden Bay Drive,Portland,OR,97217,45.610573,-122.67011,2,2,95,350000,14838,103943,7550,117395,7288,85843,35049,1719,8469,7167,4857,1698,1763,2979,916,37.7
North Hayden Bay Drive,Portland,OR,97217,45.61007,-122.66914,1,2,67,249900,14838,103943,7550,117395,7288,85843,35049,1719,8469,7167,4857,1698,1763,2979,916,37.7
Tibbetts Drive,Longview,WA,98632,46.14585,-122.968315,2,1,80,182500,20842,70972,12681,87224,8161,40721,50944,2966,6612,6313,5499,3177,3675,5848,2839,39.6
River Road,Longview,WA,98632,46.134502,-122.9203,2,2,135,280000,20842,70972,12681,87224,8161,40721,50944,2966,6612,6313,5499,3177,3675,5848,2839,39.6
North Hayden Island Drive,Portland,OR,97217,45.61131,-122.67241,3,2,192,549000,14838,103943,7550,117395,7288,85843,35049,1719,8469,7167,4857,1698,1763,2979,916,37.7
North Hayden Bay Drive,Portland,OR,97217,45.610077,-122.669014,1,1,68,285000,14838,103943,7550,117395,7288,85843,35049,1719,8469,7167,4857,1698,1763,2979,916,37.7
North Hayden Bay Drive,Portland,OR,97217,45.61041,-122.67066,2,2,95,319000,14838,103943,7550,117395,7288,85843,35049,1719,8469,7167,4857,1698,1763,2979,916,37.7
River Road,Longview,WA,98632,46.137928,-122.919266,2,2,123,285000,20842,70972,12681,87224,8161,40721,50944,2966,6612,6313,5499,3177,3675,5848,2839,39.6
River Road,Longview,WA,98632,46.137928,-122.919266,2,2,134,350000,20842,70972,12681,87224,8161,40721,50944,2966,6612,6313,5499,3177,3675,5848,2839,39.6
47th Lane Southeast,Olympia,WA,98513,47.003845,-122.79111,3,3,149,365000,13461,102753,10006,109341,3455,70950,36117,1801,5282,4996,4322,2054,2123,4240,1584,38.1
Delaware Avenue Southeast,Olympia,WA,98513,46.99049,-122.80258,2,2,99,289000,13461,102753,10006,109341,3455,70950,36117,1801,5282,4996,4322,2054,2123,4240,1584,38.1
Illinois Lane Southeast,Olympia,WA,98513,46.990673,-122.80095,3,3,153,319000,13461,102753,10006,109341,3455,70950,36117,1801,5282,4996,4322,2054,2123,4240,1584,38.1
Reservation Road Southeast,Olympia,WA,98513,47.0403,-122.69653,1,1,63,209950,13461,102753,10006,109341,3455,70950,36117,1801,5282,4996,4322,2054,2123,4240,1584,38.1
Zircon Drive Southwest,Tacoma,WA,98498,47.193542,-122.5515,2,2,86,249500,11400,87719,7004,101640,4396,59174,29062,2302,4815,2922,3679,1634,2113,3350,1309,38.9
71st Street Court Southwest,Lakewood,WA,98498,47.19191,-122.554504,3,2,142,499999,11400,87719,7004,101640,4396,59174,29062,2302,4815,2922,3679,1634,2113,3350,1309,38.9
Zircon Drive Southwest,Tacoma,WA,98498,47.19389,-122.54913,2,2,85,235000,11400,87719,7004,101640,4396,59174,29062,2302,4815,2922,3679,1634,2113,3350,1309,38.9
Zircon Drive Southwest,Tacoma,WA,98498,47.19354,-122.550476,2,2,85,220000,11400,87719,7004,101640,4396,59174,29062,2302,4815,2922,3679,1634,2113,3350,1309,38.9
90th Avenue Court Southwest,Lakewood,WA,98498,47.19225,-122.55788,3,2,142,475000,11400,87719,7004,101640,4396,59174,29062,2302,4815,2922,3679,1634,2113,3350,1309,38.9
Zircon Drive Southwest,Tacoma,WA,98498,47.193066,-122.55264,2,2,86,268000,11400,87719,7004,101640,4396,59174,29062,2302,4815,2922,3679,1634,2113,3350,1309,38.9
Northwest Payne Street,Camas,WA,98607,45.63503,-122.45165,3,3,228,775000,11186,136847,9042,151314,2144,68557,34674,1166,3254,4859,5787,2525,2064,3413,1134,41.6
Naval Avenue,Bremerton,WA,98312,47.578,-122.64567,2,2,100,200000,12593,80927,7537,94163,5056,56992,31762,2159,5726,4191,3361,2122,1803,3336,1367,36.5
Lebo Boulevard,Bremerton,WA,98310,47.582203,-122.63454,3,2,113,325000,8785,73139,4892,80578,3893,56645,21635,1779,4065,2872,2065,1501,1421,1676,1306,36.6
None,Bremerton,WA,98337,47.56445,-122.62444,2,2,123,675000,3513,68122,1623,77688,1890,50382,8582,1774,2219,1042,864,356,637,544,56,31.9
Northwest 75th Avenue,Camas,WA,98607,45.63363,-122.45151,3,3,231,799000,11186,136847,9042,151314,2144,68557,34674,1166,3254,4859,5787,2525,2064,3413,1134,41.6
South 323rd Place,Federal Way,WA,98003,47.31168,-122.3266,1,1,56,210000,18515,76753,10942,89003,7573,53131,50501,2898,8051,6253,5484,3212,3304,4645,1940,35.9
South 327th Place,Federal Way,WA,98003,47.308506,-122.33339,2,2,96,350000,18515,76753,10942,89003,7573,53131,50501,2898,8051,6253,5484,3212,3304,4645,1940,35.9
None,Federal Way,WA,98003,47.30621,-122.30952,2,1,80,249500,18515,76753,10942,89003,7573,53131,50501,2898,8051,6253,5484,3212,3304,4645,1940,35.9
South 323rd Place,Federal Way,WA,98003,47.312054,-122.326965,2,1,78,269999,18515,76753,10942,89003,7573,53131,50501,2898,8051,6253,5484,3212,3304,4645,1940,35.9
South 340th Street,Federal Way,WA,98003,47.297848,-122.33272,1,1,62,229950,18515,76753,10942,89003,7573,53131,50501,2898,8051,6253,5484,3212,3304,4645,1940,35.9
Southeast Mile Hill Drive,Pt Orchard,WA,98366,47.535126,-122.613884,2,1,80,199900,13838,86217,9347,98428,4491,54643,36620,2299,5541,4983,4083,2656,2493,3277,1925,38.7
South 324th Place,Federal Way,WA,98003,47.311115,-122.33334,2,2,97,349500,18515,76753,10942,89003,7573,53131,50501,2898,8051,6253,5484,3212,3304,4645,1940,35.9
South 340th Street,Federal Way,WA,98003,47.29718,-122.333435,2,1,87,258950,18515,76753,10942,89003,7573,53131,50501,2898,8051,6253,5484,3212,3304,4645,1940,35.9
Washington Beach Avenue,Bremerton,WA,98337,47.56516,-122.62375,2,3,156,724700,3513,68122,1623,77688,1890,50382,8582,1774,2219,1042,864,356,637,544,56,31.9
10th Avenue Southwest,Federal Way,WA,98023,47.3027,-122.34487,1,1,62,219950,17466,100910,12960,109615,4506,64517,51811,3895,6581,7039,7211,3607,3726,4053,1704,37.7
10th Avenue Southwest,Federal Way,WA,98023,47.3027,-122.34487,2,2,84,308000,17466,100910,12960,109615,4506,64517,51811,3895,6581,7039,7211,3607,3726,4053,1704,37.7
South 321st Street,Federal Way,WA,98003,47.313915,-122.32695,3,1,94,310000,18515,76753,10942,89003,7573,53131,50501,2898,8051,6253,5484,3212,3304,4645,1940,35.9
Washington Avenue,Bremerton,WA,98337,47.56605,-122.62342,1,2,106,458500,3513,68122,1623,77688,1890,50382,8582,1774,2219,1042,864,356,637,544,56,31.9
East Soderberg Road,Allyn,WA,98524,47.390804,-122.8438,2,2,130,449950,1625,95035,1239,109052,386,46712,4326,151,662,613,417,359,356,623,167,41.8
East Old Ranch Road,Allyn,WA,98524,47.395996,-122.8363,2,3,185,497500,1625,95035,1239,109052,386,46712,4326,151,662,613,417,359,356,623,167,41.8
West Freedom Lane,Shelton,WA,98584,47.14457,-123.09642,2,2,140,318500,13761,73690,8977,82451,4784,52010,37360,2248,4040,5007,3860,2918,2904,4666,2121,41.3
14th Avenue South,Federal Way,WA,98003,47.32307,-122.31716,1,1,58,219990,18515,76753,10942,89003,7573,53131,50501,2898,8051,6253,5484,3212,3304,4645,1940,35.9
South 317th Street,Federal Way,WA,98003,47.31793,-122.30171,2,2,80,299000,18515,76753,10942,89003,7573,53131,50501,2898,8051,6253,5484,3212,3304,4645,1940,35.9
14th Avenue South,Federal Way,WA,98003,47.32336,-122.31691,1,1,63,189000,18515,76753,10942,89003,7573,53131,50501,2898,8051,6253,5484,3212,3304,4645,1940,35.9
South 336th Street,Federal Way,WA,98003,47.301285,-122.304665,2,2,103,399900,18515,76753,10942,89003,7573,53131,50501,2898,8051,6253,5484,3212,3304,4645,1940,35.9
Northeast 76th Street,Camas,WA,98607,45.6772,-122.3603,3,3,209,725000,11186,136847,9042,151314,2144,68557,34674,1166,3254,4859,5787,2525,2064,3413,1134,41.6
Northwest 75th Avenue,Camas,WA,98607,45.63369,-122.451385,3,3,231,779000,11186,136847,9042,151314,2144,68557,34674,1166,3254,4859,5787,2525,2064,3413,1134,41.6
Northwest Quinault Street,Camas,WA,98607,45.635105,-122.45233,3,3,278,950000,11186,136847,9042,151314,2144,68557,34674,1166,3254,4859,5787,2525,2064,3413,1134,41.6
10th Avenue Southwest,Federal Way,WA,98023,47.3027,-122.34487,1,1,63,240000,17466,100910,12960,109615,4506,64517,51811,3895,6581,7039,7211,3607,3726,4053,1704,37.7
Southwest 307th Street,Federal Way,WA,98023,47.32668,-122.356415,2,2,97,370000,17466,100910,12960,109615,4506,64517,51811,3895,6581,7039,7211,3607,3726,4053,1704,37.7
South 317th Street,Federal Way,WA,98003,47.317932,-122.30227,2,2,80,329988,18515,76753,10942,89003,7573,53131,50501,2898,8051,6253,5484,3212,3304,4645,1940,35.9
South 321st Place,Federal Way,WA,98003,47.312527,-122.328514,3,2,91,335000,18515,76753,10942,89003,7573,53131,50501,2898,8051,6253,5484,3212,3304,4645,1940,35.9
336th St S & 20th Ave S,Federal Way,WA,98003,47.300777,-122.30632,2,3,86,320000,18515,76753,10942,89003,7573,53131,50501,2898,8051,6253,5484,3212,3304,4645,1940,35.9
South 312th Street,Federal Way,WA,98003,47.322556,-122.319916,3,2,114,349995,18515,76753,10942,89003,7573,53131,50501,2898,8051,6253,5484,3212,3304,4645,1940,35.9
South 325th Place,Federal Way,WA,98003,47.310394,-122.3285,2,1,72,230000,18515,76753,10942,89003,7573,53131,50501,2898,8051,6253,5484,3212,3304,4645,1940,35.9
Northwest Quinault Street,Camas,WA,98607,45.635113,-122.45233,3,3,209,649000,11186,136847,9042,151314,2144,68557,34674,1166,3254,4859,5787,2525,2064,3413,1134,41.6
South 340th Street,Federal Way,WA,98003,47.297848,-122.33272,2,1,82,240000,18515,76753,10942,89003,7573,53131,50501,2898,8051,6253,5484,3212,3304,4645,1940,35.9
South 330th Street,Federal Way,WA,98003,47.30506,-122.30942,2,2,92,275000,18515,76753,10942,89003,7573,53131,50501,2898,8051,6253,5484,3212,3304,4645,1940,35.9
South 330th Street,Federal Way,WA,98003,47.304466,-122.31107,1,1,54,195000,18515,76753,10942,89003,7573,53131,50501,2898,8051,6253,5484,3212,3304,4645,1940,35.9
14th Avenue South,Federal Way,WA,98003,47.324097,-122.3162,1,1,62,219990,18515,76753,10942,89003,7573,53131,50501,2898,8051,6253,5484,3212,3304,4645,1940,35.9
336th St S & 20th Ave S,Federal Way,WA,98003,47.300777,-122.30632,2,3,85,299950,18515,76753,10942,89003,7573,53131,50501,2898,8051,6253,5484,3212,3304,4645,1940,35.9
14th Avenue South,Federal Way,WA,98003,47.324097,-122.3162,1,1,58,199950,18515,76753,10942,89003,7573,53131,50501,2898,8051,6253,5484,3212,3304,4645,1940,35.9
3rd Place South,Federal Way,WA,98003,47.310204,-122.33108,3,2,134,299000,18515,76753,10942,89003,7573,53131,50501,2898,8051,6253,5484,3212,3304,4645,1940,35.9
None,Federal Way,WA,98003,47.31386,-122.328316,1,1,55,185000,18515,76753,10942,89003,7573,53131,50501,2898,8051,6253,5484,3212,3304,4645,1940,35.9
Northwest 76th Avenue,Camas,WA,98607,45.633614,-122.45097,3,3,209,699000,11186,136847,9042,151314,2144,68557,34674,1166,3254,4859,5787,2525,2064,3413,1134,41.6
Northwest Quinault Street,Camas,WA,98607,45.635105,-122.45233,3,3,284,899000,11186,136847,9042,151314,2144,68557,34674,1166,3254,4859,5787,2525,2064,3413,1134,41.6
South 330th Street,Federal Way,WA,98003,47.304916,-122.31014,1,1,54,177000,18515,76753,10942,89003,7573,53131,50501,2898,8051,6253,5484,3212,3304,4645,1940,35.9
19th Avenue Southeast,Puyallup,WA,98372,47.173157,-122.29319,2,2,97,294950,10483,96224,6790,111839,3693,62412,27127,1699,4699,3007,4034,1752,1820,2043,1288,37.4
Northwest 77th Avenue,Camas,WA,98607,45.6347,-122.45243,3,3,260,950000,11186,136847,9042,151314,2144,68557,34674,1166,3254,4859,5787,2525,2064,3413,1134,41.6
7th Street Southeast,Puyallup,WA,98372,47.18529,-122.27819,3,2,110,399950,10483,96224,6790,111839,3693,62412,27127,1699,4699,3007,4034,1752,1820,2043,1288,37.4
Fairwood Boulevard Northeast,Tacoma,WA,98422,47.298763,-122.39347,3,2,144,440000,7905,116313,5812,127779,2093,76635,22002,1132,3141,2929,2846,1618,1441,2401,817,39
70th Avenue Northwest,Olympia,WA,98502,47.132748,-122.93288,3,3,258,759000,13914,93287,8515,112429,5399,57416,35954,2464,5955,5248,3742,2222,2239,3528,1918,37.7
Peach Court,Pt Angeles,WA,98363,48.129215,-123.49321,1,1,82,249900,5955,70442,3827,80155,2128,45861,14245,519,1663,1830,1679,1115,1308,2004,798,45.1
Military Road East,Tacoma,WA,98446,47.106533,-122.358925,2,3,157,375000,4116,100046,2645,109417,1471,66786,13068,349,1965,2004,1560,1067,978,950,659,37.6
Military Road East,Tacoma,WA,98446,47.105907,-122.35926,2,3,157,360000,4116,100046,2645,109417,1471,66786,13068,349,1965,2004,1560,1067,978,950,659,37.6
36th Avenue Court East,Tacoma,WA,98446,47.12211,-122.38097,3,3,150,419950,4116,100046,2645,109417,1471,66786,13068,349,1965,2004,1560,1067,978,950,659,37.6
36th Avenue Court East,Tacoma,WA,98446,47.12196,-122.38085,3,3,116,414950,4116,100046,2645,109417,1471,66786,13068,349,1965,2004,1560,1067,978,950,659,37.6
36th Avenue Court East,Tacoma,WA,98446,47.122112,-122.38133,3,3,116,419950,4116,100046,2645,109417,1471,66786,13068,349,1965,2004,1560,1067,978,950,659,37.6
36th Avenue Court East,Tacoma,WA,98446,47.122173,-122.38103,3,3,150,429950,4116,100046,2645,109417,1471,66786,13068,349,1965,2004,1560,1067,978,950,659,37.6
36th Avenue Court East,Tacoma,WA,98446,47.122044,-122.38091,3,3,150,419950,4116,100046,2645,109417,1471,66786,13068,349,1965,2004,1560,1067,978,950,659,37.6
Military Road East,Tacoma,WA,98446,47.106834,-122.35898,2,3,173,399900,4116,100046,2645,109417,1471,66786,13068,349,1965,2004,1560,1067,978,950,659,37.6
East 31st Street,Bremerton,WA,98310,47.592373,-122.63861,2,1,70,225000,8785,73139,4892,80578,3893,56645,21635,1779,4065,2872,2065,1501,1421,1676,1306,36.6
Sylvan Pines Circle,Bremerton,WA,98310,47.59602,-122.64361,3,2,110,280000,8785,73139,4892,80578,3893,56645,21635,1779,4065,2872,2065,1501,1421,1676,1306,36.6
62nd Avenue Northwest,Gig Harbor,WA,98332,47.37574,-122.62156,2,2,92,375000,7088,152914,5217,176204,1871,84728,19722,625,2176,2233,2589,1382,1694,2893,1202,46.6
Harborcrest Court Northwest,Gig Harbor,WA,98332,47.351906,-122.58758,2,2,104,360000,7088,152914,5217,176204,1871,84728,19722,625,2176,2233,2589,1382,1694,2893,1202,46.6
9th Avenue Southeast,Puyallup,WA,98372,47.183704,-122.2895,2,1,111,419950,10483,96224,6790,111839,3693,62412,27127,1699,4699,3007,4034,1752,1820,2043,1288,37.4
Concord Lane Northeast,Bremerton,WA,98311,47.632538,-122.62726,2,2,78,265000,10436,91433,7466,101461,2970,57414,27170,2237,4469,3187,2934,1713,1337,3013,1323,36
Narrows View Lane Northeast,Bremerton,WA,98310,47.594414,-122.64795,3,2,106,287777,8785,73139,4892,80578,3893,56645,21635,1779,4065,2872,2065,1501,1421,1676,1306,36.6
Apaloosa Way Northeast,Bremerton,WA,98310,47.595085,-122.64733,3,3,141,435000,8785,73139,4892,80578,3893,56645,21635,1779,4065,2872,2065,1501,1421,1676,1306,36.6
Sylvan Pines Circle,Bremerton,WA,98310,47.596066,-122.6434,3,2,126,270000,8785,73139,4892,80578,3893,56645,21635,1779,4065,2872,2065,1501,1421,1676,1306,36.6
Narrows View Lane Northeast,Bremerton,WA,98310,47.593544,-122.64857,2,2,87,279999,8785,73139,4892,80578,3893,56645,21635,1779,4065,2872,2065,1501,1421,1676,1306,36.6
Stevens Street,Steilacoom,WA,98388,47.16919,-122.59133,3,2,144,449500,2585,97808,1815,107513,770,63369,6975,364,870,953,848,417,614,792,368,41.3
58th Avenue,Gig Harbor,WA,98332,47.3699,-122.616394,2,3,257,965000,7088,152914,5217,176204,1871,84728,19722,625,2176,2233,2589,1382,1694,2893,1202,46.6
97th Avenue East,Puyallup,WA,98373,47.136257,-122.299644,2,2,78,305000,9663,101980,6868,113774,2795,67007,29283,2037,4640,4541,3822,1508,1422,2010,781,34.7
Vikings Crest Northeast,Poulsbo,WA,98370,47.74555,-122.64336,2,2,93,280000,13063,104030,8957,122333,4106,59762,33071,1778,3838,4205,4410,2694,2335,3987,1850,43.5
Vikings Crest Northeast,Poulsbo,WA,98370,47.74555,-122.64336,3,2,111,305997,13063,104030,8957,122333,4106,59762,33071,1778,3838,4205,4410,2694,2335,3987,1850,43.5
97th Avenue East,Puyallup,WA,98373,47.135166,-122.298935,3,2,101,315000,9663,101980,6868,113774,2795,67007,29283,2037,4640,4541,3822,1508,1422,2010,781,34.7
132nd Street Court East,Puyallup,WA,98373,47.13643,-122.296974,3,2,89,349950,9663,101980,6868,113774,2795,67007,29283,2037,4640,4541,3822,1508,1422,2010,781,34.7
97th Avenue East,Puyallup,WA,98373,47.13483,-122.30051,2,2,78,315000,9663,101980,6868,113774,2795,67007,29283,2037,4640,4541,3822,1508,1422,2010,781,34.7
